{
"type": "FeatureCollection",
"name": "pharmacies",
"crs": { "type": "name", "properties": { "name": "urn:ogc:def:crs:OGC:1.3:CRS84" } },
"features": [
{ "type": "Feature", "properties": { "id": "c366b18c1123", "name": "Sorella-Apotheke", "adr": "Berliner Str. 27", "zip": 16540, "city": "Hohen Neuendorf", "tel": "03303\/2957010", "lat": 52.6685057, "lng": 13.2820572, "web": null }, "geometry": { "type": "Point", "coordinates": [ 13.2820572, 52.6685057 ] } },
{ "type": "Feature", "properties": { "id": "e87bb96b1747", "name": "Alte Königs-Apotheke", "adr": "Langenstr. 13", "zip": 49624, "city": "Löningen", "tel": "05432\/92200", "lat": 52.7336618, "lng": 7.7560764, "web": null }, "geometry": { "type": "Point", "coordinates": [ 7.7560764, 52.7336618 ] } },
{ "type": "Feature", "properties": { "id": "192f2c7372d4", "name": "Alte-Post-Apotheke", "adr": "Bergisch Gladbacher Str. 597", "zip": 51067, "city": "Köln", "tel": "0221\/630318", "lat": 50.9704974, "lng": 7.0473269, "web": "http:\/\/www.altepostapotheke-app.de" }, "geometry": { "type": "Point", "coordinates": [ 7.0473269, 50.9704974 ] } },
{ "type": "Feature", "properties": { "id": "b9e495a71653", "name": "Egelsbach-Apotheke", "adr": "Ernst-Ludwig-Str. 48", "zip": 63329, "city": "Egelsbach", "tel": "06103\/49677", "lat": 49.969386, "lng": 8.6660937, "web": "http:\/\/www.egelsbach-apotheke-app.de" }, "geometry": { "type": "Point", "coordinates": [ 8.6660937, 49.969386 ] } },
{ "type": "Feature", "properties": { "id": "76f3c762e63c", "name": "Sonnenschein Apotheke", "adr": "Neversstr. 5", "zip": 56068, "city": "Koblenz", "tel": "0261\/1339660", "lat": 50.3487328, "lng": 7.5903431, "web": null }, "geometry": { "type": "Point", "coordinates": [ 7.5903431, 50.3487328 ] } },
{ "type": "Feature", "properties": { "id": "75e6a8012cb7", "name": "Glashütter Apotheke", "adr": "Tangstedter Landstr. 555", "zip": 22851, "city": "Norderstedt", "tel": "040\/5244681", "lat": 53.6830286, "lng": 10.0314273, "web": "https:\/\/www.glashuetter-apotheke-norderstedt.de" }, "geometry": { "type": "Point", "coordinates": [ 10.0314273, 53.6830286 ] } },
{ "type": "Feature", "properties": { "id": "abd8fc88198b", "name": "Germania-Apotheke", "adr": "Thälmannstr. 25", "zip": 99085, "city": "Erfurt", "tel": "0361\/5623214", "lat": 50.9791769, "lng": 11.0424517, "web": null }, "geometry": { "type": "Point", "coordinates": [ 11.0424517, 50.9791769 ] } },
{ "type": "Feature", "properties": { "id": "5c607183c922", "name": "Altrhein-Apotheke", "adr": "Oberstr. 4", "zip": 64589, "city": "Stockstadt", "tel": "06158\/83444", "lat": 49.8090024, "lng": 8.4668526, "web": "http:\/\/www.altrhein-apotheke-stockstadt.de" }, "geometry": { "type": "Point", "coordinates": [ 8.4668526, 49.8090024 ] } },
{ "type": "Feature", "properties": { "id": "8f50ca5456c3", "name": "Altrhein-Apotheke", "adr": "Emmericher Str. 166", "zip": 47533, "city": "Kleve", "tel": "02821\/91566", "lat": 51.7979505, "lng": 6.1574468, "web": null }, "geometry": { "type": "Point", "coordinates": [ 6.1574468, 51.7979505 ] } },
{ "type": "Feature", "properties": { "id": "6119ba319056", "name": "Altstadt Apotheke", "adr": "Altstadt 21", "zip": 49525, "city": "Lengerich", "tel": "05481\/1006", "lat": 52.18954, "lng": 7.84943, "web": "http:\/\/www.altstadt-apotheke-lengerich-app.de" }, "geometry": { "type": "Point", "coordinates": [ 7.84943, 52.18954 ] } },
{ "type": "Feature", "properties": { "id": "0d5d1663e95a", "name": "Apotheke am Hogenkamp", "adr": "Ansgarstr. 31", "zip": 25336, "city": "Elmshorn", "tel": "04121\/8986890", "lat": 53.7456498, "lng": 9.6596347, "web": null }, "geometry": { "type": "Point", "coordinates": [ 9.6596347, 53.7456498 ] } },
{ "type": "Feature", "properties": { "id": "170b91411313", "name": "Apotheke am Hugenotten-Platz", "adr": "Hugenottenplatz 1", "zip": 13127, "city": "Berlin", "tel": "030\/4751160", "lat": 52.6066543, "lng": 13.4198575, "web": null }, "geometry": { "type": "Point", "coordinates": [ 13.4198575, 52.6066543 ] } },
{ "type": "Feature", "properties": { "id": "93e91b7c554f", "name": "Altstadt-Apotheke", "adr": "Hausmannstr. 2", "zip": 63452, "city": "Hanau", "tel": "06181\/81124", "lat": 50.1400259, "lng": 8.9040315, "web": "http:\/\/www.altstadt-apotheke-hanau-app.de" }, "geometry": { "type": "Point", "coordinates": [ 8.9040315, 50.1400259 ] } },
{ "type": "Feature", "properties": { "id": "f6aa0f6abfd0", "name": "Altstadt-Apotheke", "adr": "Schmiedestr. 18", "zip": 30159, "city": "Hannover", "tel": "0511\/322211", "lat": 52.3732363, "lng": 9.7350847, "web": null }, "geometry": { "type": "Point", "coordinates": [ 9.7350847, 52.373236299999988 ] } },
{ "type": "Feature", "properties": { "id": "e3f7d389c689", "name": "Apotheke am Flötenkiel", "adr": "Nordstr. 85", "zip": 27580, "city": "Bremerhaven", "tel": "0471\/81319", "lat": 53.5717243, "lng": 8.59479, "web": null }, "geometry": { "type": "Point", "coordinates": [ 8.59479, 53.5717243 ] } },
{ "type": "Feature", "properties": { "id": "540b05d3f747", "name": "Apotheke am Hambrocker Berg OHG", "adr": "Hambrocker Str. 53", "zip": 29525, "city": "Uelzen", "tel": "0581\/30940", "lat": 52.9603334, "lng": 10.5686132, "web": "http:\/\/www.apo-hambrocker-berg-app.de" }, "geometry": { "type": "Point", "coordinates": [ 10.5686132, 52.9603334 ] } },
{ "type": "Feature", "properties": { "id": "f15fee825332", "name": "Goldbach-Apotheke", "adr": "Zerzabelshofstr. 25", "zip": 90478, "city": "Nürnberg", "tel": "0911\/464647", "lat": 49.4449998, "lng": 11.1090898, "web": "http:\/\/www.goldbach-apo-app.de" }, "geometry": { "type": "Point", "coordinates": [ 11.1090898, 49.4449998 ] } },
{ "type": "Feature", "properties": { "id": "5e4b3f125e43", "name": "Apotheke am Kö", "adr": "Steinstr. 55", "zip": 47441, "city": "Moers", "tel": "02841\/22911", "lat": 51.4505225, "lng": 6.6286197, "web": "https:\/\/www.koeapo-app.de" }, "geometry": { "type": "Point", "coordinates": [ 6.6286197, 51.4505225 ] } },
{ "type": "Feature", "properties": { "id": "38f1235d7869", "name": "Hansa-Apotheke", "adr": "Parkstr. 58", "zip": 18057, "city": "Rostock", "tel": "0381\/2003497", "lat": 54.0846955, "lng": 12.1131931, "web": null }, "geometry": { "type": "Point", "coordinates": [ 12.1131931, 54.0846955 ] } },
{ "type": "Feature", "properties": { "id": "b0ca31e6bb2d", "name": "Apotheke am Kreuzfeld", "adr": "Aktienstr. 163B", "zip": 45473, "city": "Mülheim", "tel": "0208\/478224", "lat": 51.442085, "lng": 6.8979244, "web": null }, "geometry": { "type": "Point", "coordinates": [ 6.8979244, 51.442085 ] } },
{ "type": "Feature", "properties": { "id": "fef8fc6dac65", "name": "Stadt-Apotheke", "adr": "Hauptstr. 31", "zip": 91278, "city": "Pottenstein", "tel": "09243\/220", "lat": 49.7712709, "lng": 11.4097638, "web": null }, "geometry": { "type": "Point", "coordinates": [ 11.4097638, 49.7712709 ] } },
{ "type": "Feature", "properties": { "id": "dba240049daa", "name": "Apotheke am Luisenhospital OHG", "adr": "Boxgraben 85", "zip": 52064, "city": "Aachen", "tel": "0241\/55910564", "lat": 50.7683832, "lng": 6.0784365, "web": null }, "geometry": { "type": "Point", "coordinates": [ 6.0784365, 50.7683832 ] } },
{ "type": "Feature", "properties": { "id": "e45b0bd9228e", "name": "Heide-Apotheke", "adr": "Poststr. 18", "zip": 21244, "city": "Buchholz", "tel": "04181\/7807", "lat": 53.326212, "lng": 9.8789992, "web": null }, "geometry": { "type": "Point", "coordinates": [ 9.8789992, 53.326212 ] } },
{ "type": "Feature", "properties": { "id": "f664b72657b6", "name": "Gutenberg-Apotheke", "adr": "Bahnhofstr. 7", "zip": 41352, "city": "Korschenbroich", "tel": "02161\/670707", "lat": 51.1944058, "lng": 6.5544737, "web": "http:\/\/www.gutenberg-apo-app.de" }, "geometry": { "type": "Point", "coordinates": [ 6.5544737, 51.1944058 ] } },
{ "type": "Feature", "properties": { "id": "25c78e9f1f47", "name": "Stadt-Apotheke", "adr": "Lindenstr. 23 C", "zip": 1616, "city": "Strehla", "tel": "035264\/90840", "lat": 51.35087, "lng": 13.22614, "web": null }, "geometry": { "type": "Point", "coordinates": [ 13.22614, 51.35087 ] } },
{ "type": "Feature", "properties": { "id": "3f7dcf3d6eb9", "name": "Apotheke am Markt", "adr": "Darmstädter Str. 60-64", "zip": 64372, "city": "Ober-Ramstadt", "tel": "06154\/2164", "lat": 49.8270575, "lng": 8.747935, "web": "http:\/\/www.apotheke-am-markt-ober-ramstadt-app.de" }, "geometry": { "type": "Point", "coordinates": [ 8.747935, 49.8270575 ] } },
{ "type": "Feature", "properties": { "id": "b945fd2851f0", "name": "Apotheke zum Goldenen Anker", "adr": "Lenaustr. 19", "zip": 12047, "city": "Berlin", "tel": "030\/6232496", "lat": 52.490436, "lng": 13.427935, "web": null }, "geometry": { "type": "Point", "coordinates": [ 13.427935, 52.490436 ] } },
{ "type": "Feature", "properties": { "id": "bba5fbb6ac51", "name": "Apotheke zur Brücke", "adr": "Clara-Zetkin-Str. 7", "zip": 2625, "city": "Bautzen", "tel": "03591\/303234", "lat": 51.1792113, "lng": 14.4176687, "web": null }, "geometry": { "type": "Point", "coordinates": [ 14.4176687, 51.1792113 ] } },
{ "type": "Feature", "properties": { "id": "e20d5a02dd3e", "name": "Alte Markt Apotheke", "adr": "Essener Str. 8", "zip": 46282, "city": "Dorsten", "tel": "02362\/22003", "lat": 51.659841, "lng": 6.9638516, "web": null }, "geometry": { "type": "Point", "coordinates": [ 6.9638516, 51.659841 ] } },
{ "type": "Feature", "properties": { "id": "847c66cb2913", "name": "Eger-Apotheke", "adr": "Schönfließer Str. 66", "zip": 16540, "city": "Hohen Neuendorf", "tel": "03303\/212207", "lat": 52.671318, "lng": 13.2808696, "web": "http:\/\/www.egerapotheke-app.de" }, "geometry": { "type": "Point", "coordinates": [ 13.2808696, 52.671318 ] } },
{ "type": "Feature", "properties": { "id": "a4779be4cdcd", "name": "Alte Raben Apotheke", "adr": "Parkstr. 12", "zip": 27798, "city": "Hude", "tel": "04408\/321", "lat": 53.1113097, "lng": 8.46034, "web": "http:\/\/www.alte-raben-apotheke-hude.de" }, "geometry": { "type": "Point", "coordinates": [ 8.46034, 53.1113097 ] } },
{ "type": "Feature", "properties": { "id": "6b7a3bc59649", "name": "Altmark-Apotheke", "adr": "Hagenstr. 1", "zip": 38486, "city": "Klötze", "tel": "03909\/2657", "lat": 52.62746, "lng": 11.16021, "web": null }, "geometry": { "type": "Point", "coordinates": [ 11.16021, 52.62746 ] } },
{ "type": "Feature", "properties": { "id": "92d3455c6f32", "name": "Spandauer-Apotheke", "adr": "Feldstr. 56", "zip": 13585, "city": "Berlin", "tel": "030\/35391610", "lat": 52.5429507, "lng": 13.2057853, "web": "http:\/\/www.spandauer-apotheke-berlin-app.de" }, "geometry": { "type": "Point", "coordinates": [ 13.2057853, 52.5429507 ] } },
{ "type": "Feature", "properties": { "id": "96eb111384d2", "name": "Altstadt-Apotheke", "adr": "An der Försterei 1-3", "zip": 37327, "city": "Leinefelde-Worbis", "tel": "03605\/512317", "lat": 51.3870917, "lng": 10.3159068, "web": "http:\/\/www.altstadt-apotheke-lfd-app.de" }, "geometry": { "type": "Point", "coordinates": [ 10.3159068, 51.3870917 ] } },
{ "type": "Feature", "properties": { "id": "80afb203f24e", "name": "Spitzweg-Apotheke", "adr": "Straubinger Str. 1 B", "zip": 94447, "city": "Plattling", "tel": "09931\/2208", "lat": 48.7804838, "lng": 12.8709258, "web": "http:\/\/www.spitzweg-apotheke-plattling-app.de" }, "geometry": { "type": "Point", "coordinates": [ 12.8709258, 48.7804838 ] } },
{ "type": "Feature", "properties": { "id": "b584a8905cd7", "name": "Einhorn-Apotheke", "adr": "Hauptstr. 98", "zip": 23879, "city": "Mölln", "tel": "04542\/2490", "lat": 53.6291103, "lng": 10.6906023, "web": null }, "geometry": { "type": "Point", "coordinates": [ 10.6906023, 53.6291103 ] } },
{ "type": "Feature", "properties": { "id": "6bc4e838b186", "name": "Einhorn Apotheke", "adr": "Alleestr. 110", "zip": 46049, "city": "Oberhausen", "tel": "0208\/842490", "lat": 51.4700978, "lng": 6.8315622, "web": null }, "geometry": { "type": "Point", "coordinates": [ 6.8315622, 51.4700978 ] } },
{ "type": "Feature", "properties": { "id": "bc654812bf76", "name": "Einhorn-Apotheke", "adr": "Theresienplatz 8", "zip": 94315, "city": "Straubing", "tel": "09421\/99250", "lat": 48.8817436, "lng": 12.5669515, "web": null }, "geometry": { "type": "Point", "coordinates": [ 12.5669515, 48.8817436 ] } },
{ "type": "Feature", "properties": { "id": "24832b409ee4", "name": "Einhorn-Apotheke", "adr": "Friedrichstr. 3", "zip": 45964, "city": "Gladbeck", "tel": "02043\/29760", "lat": 51.571582, "lng": 6.9930667, "web": "http:\/\/www.einhorn-apotheke-gladbeck-app.de" }, "geometry": { "type": "Point", "coordinates": [ 6.9930667, 51.571582 ] } },
{ "type": "Feature", "properties": { "id": "9861c6a44739", "name": "Einhorn-Apotheke", "adr": "Neumarkt 8", "zip": 57627, "city": "Hachenburg", "tel": "02662\/1830", "lat": 50.6615254, "lng": 7.8212763, "web": "http:\/\/www.einhorn-apotheke-hachenburg-app.de" }, "geometry": { "type": "Point", "coordinates": [ 7.8212763, 50.6615254 ] } },
{ "type": "Feature", "properties": { "id": "0f76fead4162", "name": "Altstadt-Apotheke", "adr": "Breite Str. 15", "zip": 92421, "city": "Schwandorf", "tel": "09431\/41820", "lat": 49.328971, "lng": 12.1063303, "web": null }, "geometry": { "type": "Point", "coordinates": [ 12.1063303, 49.328971 ] } },
{ "type": "Feature", "properties": { "id": "aa850e474d6c", "name": "Elch-Apotheke", "adr": "Schützenweg 13", "zip": 35418, "city": "Buseck", "tel": "06408\/903310", "lat": 50.6069736, "lng": 8.7836553, "web": "http:\/\/www.elch-apotheke-buseck.de" }, "geometry": { "type": "Point", "coordinates": [ 8.7836553, 50.6069736 ] } },
{ "type": "Feature", "properties": { "id": "d191df0df868", "name": "Elefanten-Apotheke", "adr": "Schützenstr. 13", "zip": 51643, "city": "Gummersbach", "tel": "02261\/24654", "lat": 51.0280863, "lng": 7.5665864, "web": null }, "geometry": { "type": "Point", "coordinates": [ 7.5665864, 51.0280863 ] } },
{ "type": "Feature", "properties": { "id": "1a1136f1365e", "name": "Stadt-Apotheke", "adr": "Stadtplatz 17", "zip": 93437, "city": "Furth im", "tel": "09973\/84400", "lat": 49.3088676, "lng": 12.844043, "web": "https:\/\/www.stadtapotheke-rewitzer.de" }, "geometry": { "type": "Point", "coordinates": [ 12.844043, 49.3088676 ] } },
{ "type": "Feature", "properties": { "id": "b2027e1c246c", "name": "Elisen-Apotheke", "adr": "Viktoriastr. 189", "zip": 47799, "city": "Krefeld", "tel": "02151\/24610", "lat": 51.3386633, "lng": 6.5752393, "web": "http:\/\/www.elisen-apotheke-krefeld-app.de" }, "geometry": { "type": "Point", "coordinates": [ 6.5752393, 51.3386633 ] } },
{ "type": "Feature", "properties": { "id": "9c14852aad9d", "name": "Amts-Apotheke", "adr": "Wilhelmstr. 9", "zip": 65582, "city": "Diez", "tel": "06432\/4326", "lat": 50.3719035, "lng": 8.0101866, "web": null }, "geometry": { "type": "Point", "coordinates": [ 8.0101866, 50.371903499999988 ] } },
{ "type": "Feature", "properties": { "id": "db94729b4899", "name": "Stadt-Apotheke", "adr": "Am Markt 2", "zip": 37213, "city": "Witzenhausen", "tel": "05542\/3337", "lat": 51.3421597, "lng": 9.857671, "web": null }, "geometry": { "type": "Point", "coordinates": [ 9.857671, 51.3421597 ] } },
{ "type": "Feature", "properties": { "id": "6772f65634bf", "name": "Stadt-Apotheke", "adr": "Fahrstr. 5", "zip": 64832, "city": "Babenhausen", "tel": "06073\/2216", "lat": 49.9617028, "lng": 8.9534681, "web": null }, "geometry": { "type": "Point", "coordinates": [ 8.9534681, 49.9617028 ] } },
{ "type": "Feature", "properties": { "id": "2f2d1112ab99", "name": "Engel-Apotheke", "adr": "Bahnhofstr. 37", "zip": 82152, "city": "Planegg", "tel": "089\/8598538", "lat": 48.104386, "lng": 11.4169733, "web": "https:\/\/www.engel-apotheke-planegg.de" }, "geometry": { "type": "Point", "coordinates": [ 11.4169733, 48.104386 ] } },
{ "type": "Feature", "properties": { "id": "18de8368467d", "name": "Amts-Apotheke", "adr": "Bingenheimer Str. 34", "zip": 61203, "city": "Reichelsheim", "tel": "06035\/3216", "lat": 50.3588437, "lng": 8.8750513, "web": null }, "geometry": { "type": "Point", "coordinates": [ 8.8750513, 50.358843699999987 ] } },
{ "type": "Feature", "properties": { "id": "940b8d6808b7", "name": "Stadt-Apotheke", "adr": "Geraer Str. 22", "zip": 7819, "city": "Triptis", "tel": "036482\/3500", "lat": 50.7351919, "lng": 11.8672411, "web": null }, "geometry": { "type": "Point", "coordinates": [ 11.8672411, 50.7351919 ] } },
{ "type": "Feature", "properties": { "id": "3b6a3f084a36", "name": "Andreas-Apotheke", "adr": "Mozartstr. 5", "zip": 67363, "city": "Lustadt", "tel": "06347\/973000", "lat": 49.24445, "lng": 8.27673, "web": "http:\/\/www.andreasapotheke-lustadt.de" }, "geometry": { "type": "Point", "coordinates": [ 8.27673, 49.24445 ] } },
{ "type": "Feature", "properties": { "id": "c0392bbd7490", "name": "Andreas-Apotheke", "adr": "Paulinenstr. 10", "zip": 45130, "city": "Essen", "tel": "0201\/774300", "lat": 51.4388482, "lng": 7.0126938, "web": "https:\/\/www.andreas-apotheke-ruettenscheid.de" }, "geometry": { "type": "Point", "coordinates": [ 7.0126938, 51.4388482 ] } },
{ "type": "Feature", "properties": { "id": "d81366775462", "name": "Enz-Apotheke", "adr": "Vaihinger Str. 4", "zip": 71665, "city": "Vaihingen", "tel": "07042\/5431", "lat": 48.9172862, "lng": 8.9846866, "web": "http:\/\/www.apotheke-enzweihingen-app.de" }, "geometry": { "type": "Point", "coordinates": [ 8.9846866, 48.9172862 ] } },
{ "type": "Feature", "properties": { "id": "f10e1ce6b861", "name": "Erlen-Apotheke", "adr": "Burger Str. 23 b", "zip": 39291, "city": "Möckern", "tel": "039221\/262", "lat": 52.1437511, "lng": 11.9570028, "web": "http:\/\/www.erlen-apo-app.de" }, "geometry": { "type": "Point", "coordinates": [ 11.9570028, 52.1437511 ] } },
{ "type": "Feature", "properties": { "id": "5b476e4bad1b", "name": "Anger-Apotheke", "adr": "In den Blamüsen 1A", "zip": 40489, "city": "Düsseldorf", "tel": "0203\/741951", "lat": 51.3312145, "lng": 6.7872382, "web": null }, "geometry": { "type": "Point", "coordinates": [ 6.7872382, 51.331214499999987 ] } },
{ "type": "Feature", "properties": { "id": "7915aece9e5a", "name": "Stadt-Apotheke", "adr": "August-Bebel-Str. 7", "zip": 99444, "city": "Blankenhain", "tel": "036459\/41260", "lat": 50.8589477, "lng": 11.3429444, "web": "http:\/\/www.stadt-apotheke-blankenhain.de" }, "geometry": { "type": "Point", "coordinates": [ 11.3429444, 50.8589477 ] } },
{ "type": "Feature", "properties": { "id": "da5af3138325", "name": "Apotheke am Gröpertor", "adr": "Gröperstr. 14", "zip": 16909, "city": "Wittstock", "tel": "03394\/448183", "lat": 53.1644399, "lng": 12.4854612, "web": null }, "geometry": { "type": "Point", "coordinates": [ 12.4854612, 53.1644399 ] } },
{ "type": "Feature", "properties": { "id": "2996f4635597", "name": "Apotheke am Hauptbahnhof", "adr": "Steindamm 1", "zip": 20099, "city": "Hamburg", "tel": "040\/241241", "lat": 53.55285, "lng": 10.01, "web": null }, "geometry": { "type": "Point", "coordinates": [ 10.01, 53.55285 ] } },
{ "type": "Feature", "properties": { "id": "614835fc0b59", "name": "Altenbürg-Apotheke OHG", "adr": "Bahnhofstr. 6", "zip": 76689, "city": "Karlsdorf-Neuthard", "tel": "07251\/948190", "lat": 49.1375344, "lng": 8.5459636, "web": "https:\/\/www.altenbuerg-apotheke-app.de" }, "geometry": { "type": "Point", "coordinates": [ 8.5459636, 49.1375344 ] } },
{ "type": "Feature", "properties": { "id": "d60d85a0e177", "name": "Althof-Apotheke", "adr": "EurimPark 2", "zip": 83416, "city": "Saaldorf-Surheim", "tel": "08654\/778700", "lat": 47.8738848, "lng": 12.9480174, "web": null }, "geometry": { "type": "Point", "coordinates": [ 12.9480174, 47.873884800000013 ] } },
{ "type": "Feature", "properties": { "id": "495f3eefbe95", "name": "Eichen-Apotheke", "adr": "Bahnhofstr. 156", "zip": 19069, "city": "Lübstorf", "tel": "03867\/3971", "lat": 53.7291263, "lng": 11.4079637, "web": "http:\/\/www.eichen-apotheke-luebstorf.de" }, "geometry": { "type": "Point", "coordinates": [ 11.4079637, 53.7291263 ] } },
{ "type": "Feature", "properties": { "id": "b90dc9a131e9", "name": "Altländer-Apotheke", "adr": "Am Gräfengericht 9", "zip": 21635, "city": "Jork", "tel": "04162\/8787", "lat": 53.5335527, "lng": 9.6809024, "web": null }, "geometry": { "type": "Point", "coordinates": [ 9.6809024, 53.533552699999987 ] } },
{ "type": "Feature", "properties": { "id": "f343062ef4e6", "name": "Eichen-Apotheke", "adr": "Hülser Str. 84-86", "zip": 47803, "city": "Krefeld", "tel": "02151\/757172", "lat": 51.3423465, "lng": 6.5539719, "web": null }, "geometry": { "type": "Point", "coordinates": [ 6.5539719, 51.3423465 ] } },
{ "type": "Feature", "properties": { "id": "ae44e32c169a", "name": "Altstadt-Apotheke", "adr": "Heinrich-Heine-Str. 1", "zip": 2977, "city": "Hoyerswerda", "tel": "03571\/609670", "lat": 51.43542, "lng": 14.23837, "web": null }, "geometry": { "type": "Point", "coordinates": [ 14.23837, 51.43542 ] } },
{ "type": "Feature", "properties": { "id": "502b8031c596", "name": "Spessart-Apotheke", "adr": "Luitpoldstr. 21", "zip": 97828, "city": "Marktheidenfeld", "tel": "09391\/98630", "lat": 49.8448755, "lng": 9.6030261, "web": "http:\/\/www.spessart-apotheke-marktheidenfeld.de" }, "geometry": { "type": "Point", "coordinates": [ 9.6030261, 49.8448755 ] } },
{ "type": "Feature", "properties": { "id": "ef5aca9211b0", "name": "Altstadt-Apotheke", "adr": "Düsseldorfer Str. 1", "zip": 51379, "city": "Leverkusen", "tel": "02171\/1598", "lat": 51.0673893, "lng": 7.0034538, "web": null }, "geometry": { "type": "Point", "coordinates": [ 7.0034538, 51.067389299999988 ] } },
{ "type": "Feature", "properties": { "id": "647ce9076674", "name": "Spitzweck-Apotheke", "adr": "Münchener Str. 37", "zip": 85748, "city": "Garching", "tel": "089\/3290930", "lat": 48.2465351, "lng": 11.6491117, "web": "http:\/\/www.spitzweck-apotheke-garching.de" }, "geometry": { "type": "Point", "coordinates": [ 11.6491117, 48.2465351 ] } },
{ "type": "Feature", "properties": { "id": "f584e3b20531", "name": "Spitzweg-Apotheke", "adr": "Hauptstr. 1", "zip": 55768, "city": "Hoppstädten-Weiersbach", "tel": "06782\/981270", "lat": 49.615911, "lng": 7.1954696, "web": null }, "geometry": { "type": "Point", "coordinates": [ 7.1954696, 49.615911 ] } },
{ "type": "Feature", "properties": { "id": "af94cea7b42e", "name": "Amsel-Apotheke", "adr": "Rostocker Str. 15", "zip": 13059, "city": "Berlin", "tel": "030\/96203963", "lat": 52.5744206, "lng": 13.5095601, "web": "http:\/\/www.amsel-apotheke-app.de" }, "geometry": { "type": "Point", "coordinates": [ 13.5095601, 52.5744206 ] } },
{ "type": "Feature", "properties": { "id": "8c2b7cee3d2c", "name": "Spitzweg-Apotheke", "adr": "Friedhofstr. 21", "zip": 75365, "city": "Calw", "tel": "07051\/3344", "lat": 48.6957508, "lng": 8.7665671, "web": null }, "geometry": { "type": "Point", "coordinates": [ 8.7665671, 48.6957508 ] } },
{ "type": "Feature", "properties": { "id": "1c299ab723ab", "name": "Amadeus-Apotheke", "adr": "Stiftsbogen 35", "zip": 81375, "city": "München", "tel": "089\/7142324", "lat": 48.119837, "lng": 11.4923639, "web": "http:\/\/www.amadeus-apotheke-app.de" }, "geometry": { "type": "Point", "coordinates": [ 11.4923639, 48.119837 ] } },
{ "type": "Feature", "properties": { "id": "d360a960a035", "name": "Elbtal-Apotheke", "adr": "Dresdner Str. 24", "zip": 1156, "city": "Dresden", "tel": "0351\/4527990", "lat": 51.08732, "lng": 13.6335911, "web": "http:\/\/www.elbtal-apotheke.de" }, "geometry": { "type": "Point", "coordinates": [ 13.6335911, 51.08732 ] } },
{ "type": "Feature", "properties": { "id": "66a095cc76eb", "name": "Stadt Apotheke", "adr": "Schützenstr. 6", "zip": 78147, "city": "Vöhrenbach", "tel": "07727\/280", "lat": 48.0445678, "lng": 8.3055067, "web": null }, "geometry": { "type": "Point", "coordinates": [ 8.3055067, 48.0445678 ] } },
{ "type": "Feature", "properties": { "id": "2ef0943c3d8b", "name": "Stadt-Apotheke", "adr": "Bahnhofstr. 41", "zip": 86807, "city": "Buchloe", "tel": "08241\/9973990", "lat": 48.0345719, "lng": 10.7201328, "web": "http:\/\/www.stadt-apotheke-buchloe-app.de" }, "geometry": { "type": "Point", "coordinates": [ 10.7201328, 48.0345719 ] } },
{ "type": "Feature", "properties": { "id": "e871b0e3554a", "name": "Stadt-Apotheke", "adr": "Marktplatz 19", "zip": 94051, "city": "Hauzenberg", "tel": "08586\/96300", "lat": 48.6508949, "lng": 13.6246705, "web": "http:\/\/www.stadtapotheke-hauzenberg-app.de" }, "geometry": { "type": "Point", "coordinates": [ 13.6246705, 48.6508949 ] } },
{ "type": "Feature", "properties": { "id": "d4d0a0e51095", "name": "Amts Apotheke", "adr": "Marktplatz 17", "zip": 61250, "city": "Usingen", "tel": "06081\/10100", "lat": 50.33533, "lng": 8.53306, "web": null }, "geometry": { "type": "Point", "coordinates": [ 8.53306, 50.33533 ] } },
{ "type": "Feature", "properties": { "id": "df29f0c4064d", "name": "Elefanten Apotheke", "adr": "Ostwall 159", "zip": 47798, "city": "Krefeld", "tel": "02151\/27793", "lat": 51.3333286, "lng": 6.5661212, "web": null }, "geometry": { "type": "Point", "coordinates": [ 6.5661212, 51.3333286 ] } },
{ "type": "Feature", "properties": { "id": "7cbb014c4521", "name": "Stadt-Apotheke", "adr": "Humboldtstr. 13", "zip": 95168, "city": "Marktleuthen", "tel": "09285\/480", "lat": 50.1273856, "lng": 11.9963557, "web": "http:\/\/www.stadt-apotheke-marktleuthen.de" }, "geometry": { "type": "Point", "coordinates": [ 11.9963557, 50.1273856 ] } },
{ "type": "Feature", "properties": { "id": "ff330ec4778b", "name": "Elisabeth-Apotheke", "adr": "Berliner Platz 14", "zip": 97424, "city": "Schweinfurt", "tel": "09721\/82130", "lat": 50.0377328, "lng": 10.2010056, "web": null }, "geometry": { "type": "Point", "coordinates": [ 10.2010056, 50.0377328 ] } },
{ "type": "Feature", "properties": { "id": "ff420fe7ec8d", "name": "Stadt-Apotheke", "adr": "Marktplatz 6", "zip": 96231, "city": "Bad Staffelstein", "tel": "09573\/278", "lat": 50.1015393, "lng": 11.0005106, "web": null }, "geometry": { "type": "Point", "coordinates": [ 11.0005106, 50.1015393 ] } },
{ "type": "Feature", "properties": { "id": "76ecc41e2853", "name": "Engel Apotheke", "adr": "Münsterstr. 9", "zip": 48167, "city": "Münster", "tel": "02506\/931711", "lat": 51.9174915, "lng": 7.7280572, "web": "https:\/\/www.engel-apotheke-wolbeck.de" }, "geometry": { "type": "Point", "coordinates": [ 7.7280572, 51.9174915 ] } },
{ "type": "Feature", "properties": { "id": "4cc4dd145df4", "name": "Stadt-Apotheke", "adr": "Bahnhofstr. 30", "zip": 63654, "city": "Büdingen", "tel": "06042\/96350", "lat": 50.2905363, "lng": 9.1083908, "web": null }, "geometry": { "type": "Point", "coordinates": [ 9.1083908, 50.2905363 ] } },
{ "type": "Feature", "properties": { "id": "deb4e3f6e380", "name": "Engel-Apotheke", "adr": "Waldhausener Str. 224", "zip": 41061, "city": "Mönchengladbach", "tel": "02161\/890164", "lat": 51.1974512, "lng": 6.4183255, "web": null }, "geometry": { "type": "Point", "coordinates": [ 6.4183255, 51.1974512 ] } },
{ "type": "Feature", "properties": { "id": "5232456bd21d", "name": "Engel-Apotheke", "adr": "Hülsdonkstr. 128", "zip": 47877, "city": "Willich", "tel": "02154\/8863845", "lat": 51.2594291, "lng": 6.5363869, "web": null }, "geometry": { "type": "Point", "coordinates": [ 6.5363869, 51.2594291 ] } },
{ "type": "Feature", "properties": { "id": "6effdc38872f", "name": "Anker-Apotheke", "adr": "Westerstr. 30", "zip": 25761, "city": "Büsum", "tel": "04834\/95900", "lat": 54.131395, "lng": 8.855914, "web": "http:\/\/www.apotheke-buesum-app.de" }, "geometry": { "type": "Point", "coordinates": [ 8.855914, 54.131395 ] } },
{ "type": "Feature", "properties": { "id": "641cfae945cc", "name": "Andreas-Apotheke", "adr": "Ostring 7", "zip": 85614, "city": "Kirchseeon", "tel": "08091\/9505", "lat": 48.0814689, "lng": 11.8649906, "web": "http:\/\/www.andreas-apotheke-kirchseeon.de" }, "geometry": { "type": "Point", "coordinates": [ 11.8649906, 48.0814689 ] } },
{ "type": "Feature", "properties": { "id": "48e7d5c062c5", "name": "Anker-Apotheke", "adr": "Bahnhofstr. 13", "zip": 24811, "city": "Owschlag", "tel": "04336\/9826", "lat": 54.3931829, "lng": 9.5924423, "web": "http:\/\/www.anker-apotheke-owschlag-app.de" }, "geometry": { "type": "Point", "coordinates": [ 9.5924423, 54.3931829 ] } },
{ "type": "Feature", "properties": { "id": "b7394c66ee2e", "name": "Alte Post Apotheke", "adr": "Bahnhofstr. 16 A", "zip": 53604, "city": "Bad Honnef", "tel": "02224\/941043", "lat": 50.644158, "lng": 7.2238825, "web": "http:\/\/www.alte-post-apotheke-bad-honnef.de" }, "geometry": { "type": "Point", "coordinates": [ 7.2238825, 50.644158 ] } },
{ "type": "Feature", "properties": { "id": "85ac9f1414a6", "name": "Egestorfer Apotheke", "adr": "Stoppstr. 35", "zip": 30890, "city": "Barsinghausen", "tel": "05105\/585303", "lat": 52.2892606, "lng": 9.5019432, "web": "http:\/\/www.egestorfer-apotheke-barsinghausen.de" }, "geometry": { "type": "Point", "coordinates": [ 9.5019432, 52.2892606 ] } },
{ "type": "Feature", "properties": { "id": "0350ea533c7b", "name": "Apotheke am Dorfplatz", "adr": "Obere Dorfstr. 11", "zip": 89359, "city": "Kötz", "tel": "08221\/31255", "lat": 48.4070352, "lng": 10.2718929, "web": null }, "geometry": { "type": "Point", "coordinates": [ 10.2718929, 48.4070352 ] } },
{ "type": "Feature", "properties": { "id": "ebec3dd2c337", "name": "Apotheke am Hermannplatz", "adr": "Hermannplatz 9", "zip": 10967, "city": "Berlin", "tel": "030\/6237046", "lat": 52.4874668, "lng": 13.4256221, "web": "http:\/\/www.apo-am-hermannplatz-app.de" }, "geometry": { "type": "Point", "coordinates": [ 13.4256221, 52.4874668 ] } },
{ "type": "Feature", "properties": { "id": "4392106ca14b", "name": "Spielberger-Apotheke", "adr": "Carl-Schurz-Str. 29", "zip": 13597, "city": "Berlin", "tel": "030\/3335044", "lat": 52.5369079, "lng": 13.2025523, "web": "https:\/\/www.spielberger-apotheke-berlin.de" }, "geometry": { "type": "Point", "coordinates": [ 13.2025523, 52.5369079 ] } },
{ "type": "Feature", "properties": { "id": "32526bd38e13", "name": "Apotheke am Inselpark e.K.", "adr": "Neuenfelder Str. 31", "zip": 21109, "city": "Hamburg", "tel": "040\/302386990", "lat": 53.4969895, "lng": 10.0045246, "web": null }, "geometry": { "type": "Point", "coordinates": [ 10.0045246, 53.4969895 ] } },
{ "type": "Feature", "properties": { "id": "c40c47805308", "name": "Eichen-Apotheke", "adr": "Lippstädter Str. 61", "zip": 33659, "city": "Bielefeld", "tel": "05209\/980596", "lat": 51.9421927, "lng": 8.4957487, "web": null }, "geometry": { "type": "Point", "coordinates": [ 8.4957487, 51.9421927 ] } },
{ "type": "Feature", "properties": { "id": "bd13356ec76e", "name": "Apotheke am Friedensplatz", "adr": "Friedensplatz 7", "zip": 53111, "city": "Bonn", "tel": "0228\/634157", "lat": 50.7362939, "lng": 7.0974456, "web": null }, "geometry": { "type": "Point", "coordinates": [ 7.0974456, 50.7362939 ] } },
{ "type": "Feature", "properties": { "id": "4fff18c38a41", "name": "Eichendorff-Apotheke", "adr": "Holzgartenstr. 1", "zip": 90461, "city": "Nürnberg", "tel": "0911\/464681", "lat": 49.441539, "lng": 11.0950895, "web": null }, "geometry": { "type": "Point", "coordinates": [ 11.0950895, 49.441539 ] } },
{ "type": "Feature", "properties": { "id": "fd1ea8fb152e", "name": "Einhorn Apotheke", "adr": "Bocksgasse 55", "zip": 73525, "city": "Schwäbisch Gmünd", "tel": "07171\/2491", "lat": 48.7984175, "lng": 9.792963, "web": null }, "geometry": { "type": "Point", "coordinates": [ 9.792963, 48.7984175 ] } },
{ "type": "Feature", "properties": { "id": "c583961e6e82", "name": "Einhorn-Apotheke", "adr": "Hauptstr. 40", "zip": 97437, "city": "Haßfurt", "tel": "09521\/1468", "lat": 50.0317623, "lng": 10.5071627, "web": "http:\/\/www.einhornapotheke-hassfurt-app.de" }, "geometry": { "type": "Point", "coordinates": [ 10.5071627, 50.0317623 ] } },
{ "type": "Feature", "properties": { "id": "d2a28299ed9b", "name": "Apotheke am Marienstift", "adr": "Helmstedter Str. 130", "zip": 38102, "city": "Braunschweig", "tel": "0531\/73104", "lat": 52.2578614, "lng": 10.5452946, "web": "http:\/\/www.apothekeammarienstift-app.de" }, "geometry": { "type": "Point", "coordinates": [ 10.5452946, 52.2578614 ] } },
{ "type": "Feature", "properties": { "id": "af9a753ecccc", "name": "Apotheke am Markt", "adr": "Niedernstr. 1", "zip": 38364, "city": "Schöningen", "tel": "05352\/4044", "lat": 52.138885, "lng": 10.9685197, "web": null }, "geometry": { "type": "Point", "coordinates": [ 10.9685197, 52.138885 ] } },
{ "type": "Feature", "properties": { "id": "8daec9de7e44", "name": "Apotheke am Markt", "adr": "Marktplatz 27", "zip": 74635, "city": "Kupferzell", "tel": "07944\/2215", "lat": 49.2276771, "lng": 9.6909914, "web": null }, "geometry": { "type": "Point", "coordinates": [ 9.6909914, 49.2276771 ] } },
{ "type": "Feature", "properties": { "id": "7fd125c2f3a1", "name": "Apotheke am Michaelplatz", "adr": "Fischerstr. 90", "zip": 47055, "city": "Duisburg", "tel": "0203\/771749", "lat": 51.402059, "lng": 6.7595639, "web": "http:\/\/www.apotheke-am-michaelplatz.de" }, "geometry": { "type": "Point", "coordinates": [ 6.7595639, 51.402059 ] } },
{ "type": "Feature", "properties": { "id": "5b951188f459", "name": "Apotheke am Rathaus", "adr": "Markt 14", "zip": 36304, "city": "Alsfeld", "tel": "06631\/918085", "lat": 50.750871, "lng": 9.2716201, "web": "http:\/\/www.apothekeamrathausalsfeld.de" }, "geometry": { "type": "Point", "coordinates": [ 9.2716201, 50.750871 ] } },
{ "type": "Feature", "properties": { "id": "17497d51eb68", "name": "Apotheke am Rathaus", "adr": "Rathausstr. 1 c", "zip": 76297, "city": "Stutensee", "tel": "07244\/9476360", "lat": 49.0664558, "lng": 8.470598, "web": "http:\/\/www.apoamrathaus-stutensee-app.de" }, "geometry": { "type": "Point", "coordinates": [ 8.470598, 49.0664558 ] } },
{ "type": "Feature", "properties": { "id": "c8a4f3fc5dcd", "name": "Apotheke am Rathaus", "adr": "Wentorfer Str. 35", "zip": 21029, "city": "Hamburg", "tel": "040\/7214147", "lat": 53.4877244, "lng": 10.2205576, "web": null }, "geometry": { "type": "Point", "coordinates": [ 10.2205576, 53.4877244 ] } },
{ "type": "Feature", "properties": { "id": "1ec048ab9fa5", "name": "Apotheke am Ratzelbogen", "adr": "Kiewer Str. 5", "zip": 4209, "city": "Leipzig", "tel": "0341\/4227227", "lat": 51.3119456, "lng": 12.2799925, "web": null }, "geometry": { "type": "Point", "coordinates": [ 12.2799925, 51.311945599999987 ] } },
{ "type": "Feature", "properties": { "id": "e63243350a1d", "name": "Apotheke am Ring", "adr": "Ringstr. 33-39", "zip": 63505, "city": "Langenselbold", "tel": "06184\/903405", "lat": 50.1831267, "lng": 9.0340203, "web": null }, "geometry": { "type": "Point", "coordinates": [ 9.0340203, 50.1831267 ] } },
{ "type": "Feature", "properties": { "id": "3bb872c43944", "name": "Elch-Apotheke", "adr": "Kolberger Str. 30", "zip": 38642, "city": "Goslar", "tel": "05321\/81456", "lat": 51.9251243, "lng": 10.4336171, "web": null }, "geometry": { "type": "Point", "coordinates": [ 10.4336171, 51.9251243 ] } },
{ "type": "Feature", "properties": { "id": "23beb0ca4d78", "name": "Elefanten-Apotheke", "adr": "Stübelallee 55", "zip": 1309, "city": "Dresden", "tel": "0351\/2501440", "lat": 51.0368213, "lng": 13.7795544, "web": "http:\/\/www.elefanten-apotheke-dresden-app.de" }, "geometry": { "type": "Point", "coordinates": [ 13.7795544, 51.0368213 ] } },
{ "type": "Feature", "properties": { "id": "05bae96abb91", "name": "Stadt-Apotheke", "adr": "Marktplatz 17", "zip": 95671, "city": "Bärnau", "tel": "09635\/924792", "lat": 49.8110164, "lng": 12.4310733, "web": "http:\/\/www.stadt-apotheke-baernau-app.de" }, "geometry": { "type": "Point", "coordinates": [ 12.4310733, 49.8110164 ] } },
{ "type": "Feature", "properties": { "id": "9e0edd3af4e1", "name": "Gerner-Apotheke", "adr": "Gerner Str. 15", "zip": 80638, "city": "München", "tel": "089\/155255", "lat": 48.1609446, "lng": 11.5238894, "web": null }, "geometry": { "type": "Point", "coordinates": [ 11.5238894, 48.1609446 ] } },
{ "type": "Feature", "properties": { "id": "9967d75d3c1a", "name": "Gleissental-Apotheke", "adr": "Bahnhofstr. 37", "zip": 82041, "city": "Deisenhofen", "tel": "089\/6131736", "lat": 48.0197405, "lng": 11.5853206, "web": null }, "geometry": { "type": "Point", "coordinates": [ 11.5853206, 48.0197405 ] } },
{ "type": "Feature", "properties": { "id": "18f25c4f200e", "name": "Goethe-Apotheke", "adr": "Hauptmarkt 10", "zip": 99867, "city": "Gotha", "tel": "03621\/852717", "lat": 50.948592, "lng": 10.7025895, "web": null }, "geometry": { "type": "Point", "coordinates": [ 10.7025895, 50.948592 ] } },
{ "type": "Feature", "properties": { "id": "7516f525f8dc", "name": "Stadt-Apotheke", "adr": "Priebuser Str. 6", "zip": 2929, "city": "Rothenburg", "tel": "035891\/40550", "lat": 51.33572, "lng": 14.9686399, "web": null }, "geometry": { "type": "Point", "coordinates": [ 14.9686399, 51.33572 ] } },
{ "type": "Feature", "properties": { "id": "377bf1ed6813", "name": "Apotheke an den 3 Hasen", "adr": "An den Drei Hasen 12", "zip": 61440, "city": "Oberursel", "tel": "06171\/286960", "lat": 50.2041528, "lng": 8.5955344, "web": null }, "geometry": { "type": "Point", "coordinates": [ 8.5955344, 50.2041528 ] } },
{ "type": "Feature", "properties": { "id": "51394d5516e7", "name": "Apotheke am Viktoria-Luise-Platz", "adr": "Viktoria-Luise-Platz 9", "zip": 10777, "city": "Berlin", "tel": "030\/21967226", "lat": 52.4952466, "lng": 13.340858, "web": null }, "geometry": { "type": "Point", "coordinates": [ 13.340858, 52.495246599999987 ] } },
{ "type": "Feature", "properties": { "id": "27a30ab47b21", "name": "Stadt-Apotheke", "adr": "Aachener Str. 336", "zip": 50933, "city": "Köln", "tel": "0221\/26045700", "lat": 50.9373615, "lng": 6.9038814, "web": null }, "geometry": { "type": "Point", "coordinates": [ 6.9038814, 50.937361499999987 ] } },
{ "type": "Feature", "properties": { "id": "39c2cd00f240", "name": "Apotheke am Markt", "adr": "Marktstr. 16", "zip": 1609, "city": "Gröditz", "tel": "035263\/68083", "lat": 51.4126, "lng": 13.44531, "web": "https:\/\/www.apoammarkt.com" }, "geometry": { "type": "Point", "coordinates": [ 13.44531, 51.4126 ] } },
{ "type": "Feature", "properties": { "id": "957a66c6b285", "name": "Goethe-Apotheke", "adr": "Harksheider Weg 99", "zip": 25451, "city": "Quickborn", "tel": "04106\/650600", "lat": 53.7270899, "lng": 9.914356, "web": "http:\/\/www.goethe-apotheke-quickborn-app.de" }, "geometry": { "type": "Point", "coordinates": [ 9.914356, 53.7270899 ] } },
{ "type": "Feature", "properties": { "id": "0b023b0d0cad", "name": "Apotheke an der Muldentalklinik e.K.", "adr": "Cainsdorfer Str. 25 a", "zip": 8112, "city": "Wilkau-Haßlau", "tel": "0375\/6779760", "lat": 50.6720989, "lng": 12.5110587, "web": "http:\/\/www.apo-an-der-muldentalklinik.de" }, "geometry": { "type": "Point", "coordinates": [ 12.5110587, 50.672098899999988 ] } },
{ "type": "Feature", "properties": { "id": "0dea1fbcc152", "name": "Greif-Apotheke", "adr": "Lornsenstr. 2", "zip": 25548, "city": "Kellinghusen", "tel": "04822\/2031", "lat": 53.9514694, "lng": 9.7211775, "web": "http:\/\/www.greif-apotheke-app.de" }, "geometry": { "type": "Point", "coordinates": [ 9.7211775, 53.9514694 ] } },
{ "type": "Feature", "properties": { "id": "d27fdf9c2678", "name": "Eichen-Apotheke", "adr": "Richard-Reinicke-Str. 1", "zip": 2694, "city": "Großdubrau", "tel": "035934\/6270", "lat": 51.2558648, "lng": 14.4625202, "web": null }, "geometry": { "type": "Point", "coordinates": [ 14.4625202, 51.2558648 ] } },
{ "type": "Feature", "properties": { "id": "0550c5f63133", "name": "Alte Stadtapotheke", "adr": "Schützenstr. 2", "zip": 8626, "city": "Adorf", "tel": "037423\/5740", "lat": 50.3206602, "lng": 12.2524743, "web": "http:\/\/www.alte-stadtapotheke-adorf.de" }, "geometry": { "type": "Point", "coordinates": [ 12.2524743, 50.3206602 ] } },
{ "type": "Feature", "properties": { "id": "aed9a2a121fe", "name": "Sonnen-Apotheke e.K.", "adr": "Marktstr. 1", "zip": 48249, "city": "Dülmen", "tel": "02594\/949455", "lat": 51.8309329, "lng": 7.2774692, "web": null }, "geometry": { "type": "Point", "coordinates": [ 7.2774692, 51.8309329 ] } },
{ "type": "Feature", "properties": { "id": "033810683636", "name": "Egge Apotheke", "adr": "Adenauerstr. 70", "zip": 33184, "city": "Altenbeken", "tel": "05255\/215", "lat": 51.76323, "lng": 8.94407, "web": "http:\/\/www.egge-apo-altenbeken-app.de" }, "geometry": { "type": "Point", "coordinates": [ 8.94407, 51.76323 ] } },
{ "type": "Feature", "properties": { "id": "16486f04fcf6", "name": "Alte Ricklinger Apotheke", "adr": "Ricklinger Stadtweg 9", "zip": 30459, "city": "Hannover", "tel": "0511\/421562", "lat": 52.3441864, "lng": 9.7247561, "web": null }, "geometry": { "type": "Point", "coordinates": [ 9.7247561, 52.3441864 ] } },
{ "type": "Feature", "properties": { "id": "660965800081", "name": "Eichen-Apotheke", "adr": "Eichenweg 1", "zip": 63785, "city": "Obernburg", "tel": "06022\/5700", "lat": 49.83572, "lng": 9.1182913, "web": null }, "geometry": { "type": "Point", "coordinates": [ 9.1182913, 49.83572 ] } },
{ "type": "Feature", "properties": { "id": "7c9c9d68e6e2", "name": "Einhorn-Apotheke", "adr": "Lübecker Str. 195", "zip": 19059, "city": "Schwerin", "tel": "0385\/710608", "lat": 53.6388105, "lng": 11.3948613, "web": "http:\/\/www.einhorn-apotheke-schwerin-app.de" }, "geometry": { "type": "Point", "coordinates": [ 11.3948613, 53.6388105 ] } },
{ "type": "Feature", "properties": { "id": "a60d6ff85f69", "name": "Eifel-Apotheke", "adr": "Hermann-Kattwinkel-Platz 5", "zip": 53937, "city": "Schleiden", "tel": "02444\/912555", "lat": 50.571137, "lng": 6.502617, "web": "http:\/\/www.eifel-apotheke-schleiden.de" }, "geometry": { "type": "Point", "coordinates": [ 6.502617, 50.571137 ] } },
{ "type": "Feature", "properties": { "id": "5ec344f85a96", "name": "Althoff Apotheke im Schlick-Center", "adr": "Langendorfer Str. 94", "zip": 56564, "city": "Neuwied", "tel": "02631\/9530305", "lat": 50.4307587, "lng": 7.4579439, "web": "http:\/\/www.althoff-apotheke-neuwied.de" }, "geometry": { "type": "Point", "coordinates": [ 7.4579439, 50.4307587 ] } },
{ "type": "Feature", "properties": { "id": "4bb1a844eb59", "name": "Altkönig-Apotheke", "adr": "Niddagaustr. 73", "zip": 60489, "city": "Frankfurt", "tel": "069\/783639", "lat": 50.1306237, "lng": 8.6152441, "web": null }, "geometry": { "type": "Point", "coordinates": [ 8.6152441, 50.1306237 ] } },
{ "type": "Feature", "properties": { "id": "b645d90e13dd", "name": "Altrhein-Apotheke", "adr": "Hauptstr. 42", "zip": 67575, "city": "Eich", "tel": "06246\/7666", "lat": 49.7498, "lng": 8.40415, "web": null }, "geometry": { "type": "Point", "coordinates": [ 8.40415, 49.7498 ] } },
{ "type": "Feature", "properties": { "id": "c39acec53c36", "name": "Altstadt Apotheke", "adr": "Ludgeristr. 100", "zip": 59379, "city": "Selm", "tel": "02592\/4027", "lat": 51.6993763, "lng": 7.4684575, "web": "http:\/\/www.neue-apotheke-bruening-selm.de" }, "geometry": { "type": "Point", "coordinates": [ 7.4684575, 51.6993763 ] } },
{ "type": "Feature", "properties": { "id": "51a7435b6f59", "name": "Altstadt-Apotheke", "adr": "Kurze Str. 2", "zip": 37073, "city": "Göttingen", "tel": "0551\/547220", "lat": 51.5307249, "lng": 9.9362475, "web": "http:\/\/www.altstadt-apotheke-goettingen-app.de" }, "geometry": { "type": "Point", "coordinates": [ 9.9362475, 51.5307249 ] } },
{ "type": "Feature", "properties": { "id": "dde0650b10ee", "name": "Einhorn-Apotheke", "adr": "Landshuter Str. 64-66", "zip": 93053, "city": "Regensburg", "tel": "0941\/73466", "lat": 49.0077964, "lng": 12.1153812, "web": null }, "geometry": { "type": "Point", "coordinates": [ 12.1153812, 49.0077964 ] } },
{ "type": "Feature", "properties": { "id": "82fb585f1f05", "name": "Einhorn-Apotheke", "adr": "Rosenstr. 1", "zip": 49545, "city": "Tecklenburg", "tel": "05481\/7878", "lat": 52.213667, "lng": 7.8864254, "web": null }, "geometry": { "type": "Point", "coordinates": [ 7.8864254, 52.213667 ] } },
{ "type": "Feature", "properties": { "id": "a355d22be444", "name": "Altstadt Apotheke im Kaufland", "adr": "Große Weilstr. 18-20", "zip": 45525, "city": "Hattingen", "tel": "02324\/6869494", "lat": 51.3973303, "lng": 7.1825379, "web": "http:\/\/www.altstadt-apotheke-hattingen.de" }, "geometry": { "type": "Point", "coordinates": [ 7.1825379, 51.3973303 ] } },
{ "type": "Feature", "properties": { "id": "dcd149918a65", "name": "Altstadt-Apotheke OHG", "adr": "Altstadt 27", "zip": 84028, "city": "Landshut", "tel": "0871\/923190", "lat": 48.53377, "lng": 12.15011, "web": "http:\/\/www.altstadt-apotheke-landshut-app.de" }, "geometry": { "type": "Point", "coordinates": [ 12.15011, 48.53377 ] } },
{ "type": "Feature", "properties": { "id": "5a9e0a616c09", "name": "Eisbär-Apotheke", "adr": "An der RaumFabrik 6", "zip": 76227, "city": "Karlsruhe", "tel": "0721\/89330880", "lat": 48.998056, "lng": 8.4631158, "web": "http:\/\/www.eisbaer-apotheke-app.de" }, "geometry": { "type": "Point", "coordinates": [ 8.4631158, 48.998056 ] } },
{ "type": "Feature", "properties": { "id": "98c0c2c5a409", "name": "Elisen-Apotheke", "adr": "Gerhart-Hauptmann-Str. 15", "zip": 3044, "city": "Cottbus", "tel": "0355\/7811210", "lat": 51.7743354, "lng": 14.34312, "web": null }, "geometry": { "type": "Point", "coordinates": [ 14.34312, 51.7743354 ] } },
{ "type": "Feature", "properties": { "id": "2a71c658915d", "name": "Stadt-Apotheke", "adr": "Karlsplatz 32", "zip": 92676, "city": "Eschenbach", "tel": "09645\/220", "lat": 49.7524572, "lng": 11.8274875, "web": "http:\/\/www.stadt-apo-eschenbach.de" }, "geometry": { "type": "Point", "coordinates": [ 11.8274875, 49.752457199999988 ] } },
{ "type": "Feature", "properties": { "id": "4c5ea1e7012a", "name": "Stadt-Apotheke", "adr": "Im Gutshof 2", "zip": 19336, "city": "Bad Wilsnack", "tel": "038791\/5725", "lat": 52.9571344, "lng": 11.9459649, "web": "http:\/\/www.apothekebadwilsnack-app.de" }, "geometry": { "type": "Point", "coordinates": [ 11.9459649, 52.9571344 ] } },
{ "type": "Feature", "properties": { "id": "3d24e9a5f6ca", "name": "Ammersee-Apotheke", "adr": "Bahnhofstr. 18", "zip": 86919, "city": "Utting", "tel": "08806\/7613", "lat": 48.0238069, "lng": 11.0909605, "web": "http:\/\/www.ammersee-apotheke-app.de" }, "geometry": { "type": "Point", "coordinates": [ 11.0909605, 48.0238069 ] } },
{ "type": "Feature", "properties": { "id": "ca7067cd2b32", "name": "Stadt-Apotheke", "adr": "Schleizer Str. 5", "zip": 7926, "city": "Gefell", "tel": "036649\/82441", "lat": 50.4388952, "lng": 11.8606387, "web": "https:\/\/www.stadt-apotheke-gefell.de" }, "geometry": { "type": "Point", "coordinates": [ 11.8606387, 50.4388952 ] } },
{ "type": "Feature", "properties": { "id": "721fe403e6bd", "name": "Stadt-Apotheke", "adr": "Hauptstr. 21", "zip": 77723, "city": "Gengenbach", "tel": "07803\/3309", "lat": 48.403761, "lng": 8.0148585, "web": null }, "geometry": { "type": "Point", "coordinates": [ 8.0148585, 48.403761 ] } },
{ "type": "Feature", "properties": { "id": "0da9a99e82d1", "name": "Stadt-Apotheke", "adr": "Stadtplatz 12", "zip": 84529, "city": "Tittmoning", "tel": "08683\/247", "lat": 48.0616207, "lng": 12.768601, "web": null }, "geometry": { "type": "Point", "coordinates": [ 12.768601, 48.0616207 ] } },
{ "type": "Feature", "properties": { "id": "3c8055542e53", "name": "Stadt-Apotheke", "adr": "Marktplatz 21", "zip": 72250, "city": "Freudenstadt", "tel": "07441\/91910", "lat": 48.4630639, "lng": 8.4132692, "web": null }, "geometry": { "type": "Point", "coordinates": [ 8.4132692, 48.463063899999987 ] } },
{ "type": "Feature", "properties": { "id": "d99ca0cc5ede", "name": "Engel-Apotheke OHG", "adr": "Gegenbaurstr. 21", "zip": 88239, "city": "Wangen", "tel": "07522\/912392", "lat": 47.6876594, "lng": 9.8325037, "web": "http:\/\/www.engel-apo-wangen.de" }, "geometry": { "type": "Point", "coordinates": [ 9.8325037, 47.6876594 ] } },
{ "type": "Feature", "properties": { "id": "c82fc3c43e4d", "name": "Erft-Apotheke", "adr": "Kölner Str. 16", "zip": 41515, "city": "Grevenbroich", "tel": "02181\/5653", "lat": 51.0879869, "lng": 6.5903126, "web": null }, "geometry": { "type": "Point", "coordinates": [ 6.5903126, 51.0879869 ] } },
{ "type": "Feature", "properties": { "id": "cb4180153ac1", "name": "Andreas-Apotheke", "adr": "Prinz-Eugen-Str. 4", "zip": 94034, "city": "Passau", "tel": "0851\/42900", "lat": 48.58442, "lng": 13.48263, "web": null }, "geometry": { "type": "Point", "coordinates": [ 13.48263, 48.58442 ] } },
{ "type": "Feature", "properties": { "id": "daef801f4ec8", "name": "Andreas-Apotheke", "adr": "Wassergasse 2", "zip": 55270, "city": "Klein-Winternheim", "tel": "06136\/756000", "lat": 49.9405363, "lng": 8.2123782, "web": "http:\/\/www.andreas-apotheke-app.de" }, "geometry": { "type": "Point", "coordinates": [ 8.2123782, 49.9405363 ] } },
{ "type": "Feature", "properties": { "id": "5b31db991615", "name": "Andreas-Apotheke", "adr": "Bürstädter Str. 41", "zip": 68623, "city": "Lampertheim", "tel": "06206\/2815", "lat": 49.599901, "lng": 8.4700799, "web": "http:\/\/www.andreas-apo-lampertheim.de" }, "geometry": { "type": "Point", "coordinates": [ 8.4700799, 49.599901 ] } },
{ "type": "Feature", "properties": { "id": "d4c0bccf6c2e", "name": "Alte Rats-Apotheke", "adr": "Holstenstr. 42", "zip": 24103, "city": "Kiel", "tel": "0431\/6665880", "lat": 54.3216114, "lng": 10.1358564, "web": null }, "geometry": { "type": "Point", "coordinates": [ 10.1358564, 54.321611399999988 ] } },
{ "type": "Feature", "properties": { "id": "c777b418e6e9", "name": "Sonnen-Apotheke e.K.", "adr": "Große Str. 56", "zip": 27356, "city": "Rotenburg", "tel": "04261\/3330", "lat": 53.1107876, "lng": 9.4068088, "web": "http:\/\/www.sonnen-apotheke-rotenburg.de" }, "geometry": { "type": "Point", "coordinates": [ 9.4068088, 53.110787599999988 ] } },
{ "type": "Feature", "properties": { "id": "485254c9d743", "name": "Echaz-Apotheke", "adr": "Holzelfinger Str. 13", "zip": 72805, "city": "Lichtenstein", "tel": "07129\/92990", "lat": 48.4332207, "lng": 9.2568981, "web": null }, "geometry": { "type": "Point", "coordinates": [ 9.2568981, 48.4332207 ] } },
{ "type": "Feature", "properties": { "id": "d44f9409f88d", "name": "Egger-Apotheke", "adr": "Ludwigstr. 18", "zip": 94032, "city": "Passau", "tel": "0851\/9666890", "lat": 48.5741681, "lng": 13.4586705, "web": "http:\/\/www.eggerapotheke-passau-app.de" }, "geometry": { "type": "Point", "coordinates": [ 13.4586705, 48.574168099999987 ] } },
{ "type": "Feature", "properties": { "id": "8545587a79b4", "name": "Alte Spinnerei-Apotheke", "adr": "Bleichrasen 41", "zip": 99817, "city": "Eisenach", "tel": "03691\/721576", "lat": 50.9780353, "lng": 10.3076812, "web": null }, "geometry": { "type": "Point", "coordinates": [ 10.3076812, 50.978035299999988 ] } },
{ "type": "Feature", "properties": { "id": "0aa593fdb618", "name": "Altstadt-Apotheke", "adr": "Voerder Str. 2 a", "zip": 58135, "city": "Hagen", "tel": "02331\/41951", "lat": 51.346889, "lng": 7.4236707, "web": null }, "geometry": { "type": "Point", "coordinates": [ 7.4236707, 51.346889 ] } },
{ "type": "Feature", "properties": { "id": "61670805a30e", "name": "Altstadt-Apotheke", "adr": "Grubenstr. 20", "zip": 18055, "city": "Rostock", "tel": "0381\/4590409", "lat": 54.0910495, "lng": 12.1427422, "web": null }, "geometry": { "type": "Point", "coordinates": [ 12.1427422, 54.0910495 ] } },
{ "type": "Feature", "properties": { "id": "b604dbddfc54", "name": "Altstadt-Apotheke", "adr": "Küterstr. 2", "zip": 24103, "city": "Kiel", "tel": "0431\/978159", "lat": 54.3235951, "lng": 10.1382293, "web": null }, "geometry": { "type": "Point", "coordinates": [ 10.1382293, 54.3235951 ] } },
{ "type": "Feature", "properties": { "id": "710fe69b2640", "name": "Altstadt-Apotheke", "adr": "Stadtweg 27", "zip": 24837, "city": "Schleswig", "tel": "04621\/96220", "lat": 54.51655, "lng": 9.56401, "web": null }, "geometry": { "type": "Point", "coordinates": [ 9.56401, 54.51655 ] } },
{ "type": "Feature", "properties": { "id": "29a76f0bc6a2", "name": "Einhorn Apotheke", "adr": "R 1 2-3", "zip": 68161, "city": "Mannheim", "tel": "0621\/26583", "lat": 49.4893453, "lng": 8.467987, "web": "http:\/\/www.einhorn-apotheke-mannheim.de" }, "geometry": { "type": "Point", "coordinates": [ 8.467987, 49.4893453 ] } },
{ "type": "Feature", "properties": { "id": "ccd4803ac98c", "name": "Einhorn-Apotheke", "adr": "Wittinger Str. 7", "zip": 29379, "city": "Wittingen", "tel": "05834\/5225", "lat": 52.6798432, "lng": 10.7018175, "web": null }, "geometry": { "type": "Point", "coordinates": [ 10.7018175, 52.6798432 ] } },
{ "type": "Feature", "properties": { "id": "dab143259fb2", "name": "Altstadt-Apotheke am Papenberg", "adr": "Papenberg 25-26", "zip": 38350, "city": "Helmstedt", "tel": "05351\/3998330", "lat": 52.2272367, "lng": 11.011938, "web": "https:\/\/www.altstadt-apotheke-helmstedt-app.de" }, "geometry": { "type": "Point", "coordinates": [ 11.011938, 52.2272367 ] } },
{ "type": "Feature", "properties": { "id": "3e33326cfaa0", "name": "Stadt Apotheke", "adr": "Rathausplatz", "zip": 91083, "city": "Baiersdorf", "tel": "09133\/2250", "lat": 49.6568284, "lng": 11.0316077, "web": null }, "geometry": { "type": "Point", "coordinates": [ 11.0316077, 49.656828399999988 ] } },
{ "type": "Feature", "properties": { "id": "cd2b02ed289d", "name": "Einhorn-Apotheke", "adr": "Steinstr. 18", "zip": 47574, "city": "Goch", "tel": "02823\/87510", "lat": 51.6757222, "lng": 6.1577397, "web": null }, "geometry": { "type": "Point", "coordinates": [ 6.1577397, 51.6757222 ] } },
{ "type": "Feature", "properties": { "id": "c000852f3c02", "name": "Ammer-Apotheke OHG", "adr": "Schützenstr. 26 a", "zip": 82362, "city": "Weilheim", "tel": "0881\/7791", "lat": 47.84272, "lng": 11.13862, "web": null }, "geometry": { "type": "Point", "coordinates": [ 11.13862, 47.84272 ] } },
{ "type": "Feature", "properties": { "id": "a1133af9f355", "name": "Stadt-Apotheke", "adr": "Sonneberger Str. 4", "zip": 96528, "city": "Schalkau", "tel": "036766\/20501", "lat": 50.3941796, "lng": 11.00871, "web": "http:\/\/www.stadt-apotheke-schalkau-app.de" }, "geometry": { "type": "Point", "coordinates": [ 11.00871, 50.3941796 ] } },
{ "type": "Feature", "properties": { "id": "9f5b209862de", "name": "Amts Apotheke", "adr": "Osterstr. 1", "zip": 32609, "city": "Hüllhorst", "tel": "05744\/1339", "lat": 52.27421, "lng": 8.67067, "web": null }, "geometry": { "type": "Point", "coordinates": [ 8.67067, 52.27421 ] } },
{ "type": "Feature", "properties": { "id": "44af902e9217", "name": "Glauburg-Apotheke", "adr": "Glauberger Str. 2", "zip": 63695, "city": "Glauburg", "tel": "06041\/247", "lat": 50.32292, "lng": 9.01805, "web": null }, "geometry": { "type": "Point", "coordinates": [ 9.01805, 50.32292 ] } },
{ "type": "Feature", "properties": { "id": "7eaebc0f270e", "name": "Glückauf-Apotheke", "adr": "Marktstr. 25", "zip": 30890, "city": "Barsinghausen", "tel": "05105\/1409", "lat": 52.3024644, "lng": 9.4625218, "web": "http:\/\/www.glueckaufapotheke-app.de" }, "geometry": { "type": "Point", "coordinates": [ 9.4625218, 52.3024644 ] } },
{ "type": "Feature", "properties": { "id": "211afe569ec2", "name": "Glück-Auf-Apotheke", "adr": "Clausthaler Str. 1", "zip": 37539, "city": "Bad Grund", "tel": "05327\/1422", "lat": 51.8101807, "lng": 10.2377206, "web": "http:\/\/www.glueckauf-apotheke-bad-grund.de" }, "geometry": { "type": "Point", "coordinates": [ 10.2377206, 51.8101807 ] } },
{ "type": "Feature", "properties": { "id": "8e111251e98b", "name": "Goethe-Apotheke", "adr": "Oeder Weg 51", "zip": 60318, "city": "Frankfurt", "tel": "069\/556621", "lat": 50.1216222, "lng": 8.680141, "web": null }, "geometry": { "type": "Point", "coordinates": [ 8.680141, 50.1216222 ] } },
{ "type": "Feature", "properties": { "id": "1f75157e235d", "name": "Großkreuz-Apotheke", "adr": "Senftenberger Ring 5", "zip": 13439, "city": "Berlin", "tel": "030\/4076830", "lat": 52.5973735, "lng": 13.3545356, "web": "http:\/\/www.grosskreuz-apotheke-berlin.de" }, "geometry": { "type": "Point", "coordinates": [ 13.3545356, 52.5973735 ] } },
{ "type": "Feature", "properties": { "id": "03967f028398", "name": "Stadt-Apotheke", "adr": "Markt 10", "zip": 2763, "city": "Zittau", "tel": "03583\/57030", "lat": 50.8964427, "lng": 14.8065112, "web": "http:\/\/www.stadtapotheke-zittau-app.de" }, "geometry": { "type": "Point", "coordinates": [ 14.8065112, 50.896442699999987 ] } },
{ "type": "Feature", "properties": { "id": "40d9b2f3cb8f", "name": "Apotheke am Leipziger Tor", "adr": "Franzstr. 159", "zip": 6842, "city": "Dessau-Roßlau", "tel": "0340\/5169050", "lat": 51.8245574, "lng": 12.2424057, "web": "http:\/\/www.apotheke-leipziger-tor.de" }, "geometry": { "type": "Point", "coordinates": [ 12.2424057, 51.8245574 ] } },
{ "type": "Feature", "properties": { "id": "2dba1da6db24", "name": "Apotheke am Hansaplatz", "adr": "Hansastr. 7", "zip": 59494, "city": "Soest", "tel": "02921\/2472", "lat": 51.573501, "lng": 8.1045694, "web": "http:\/\/www.apotheke-am-hansaplatz-soest.de" }, "geometry": { "type": "Point", "coordinates": [ 8.1045694, 51.573501 ] } },
{ "type": "Feature", "properties": { "id": "50e9b887dac2", "name": "Apotheke am Markt", "adr": "Kirchhofsallee 2", "zip": 24214, "city": "Gettorf", "tel": "04346\/412576", "lat": 54.4076345, "lng": 9.9744959, "web": null }, "geometry": { "type": "Point", "coordinates": [ 9.9744959, 54.4076345 ] } },
{ "type": "Feature", "properties": { "id": "f5f76dd5d8aa", "name": "Greif Apotheke", "adr": "Josephinenstr. 48", "zip": 44807, "city": "Bochum", "tel": "0234\/593141", "lat": 51.4995713, "lng": 7.2300087, "web": "http:\/\/www.greif-apotheke-bochum.de" }, "geometry": { "type": "Point", "coordinates": [ 7.2300087, 51.4995713 ] } },
{ "type": "Feature", "properties": { "id": "148869fe9d9a", "name": "Apotheke am Klingerplatz", "adr": "Guerickestr. 2", "zip": 30655, "city": "Hannover", "tel": "0511\/5479851", "lat": 52.40217, "lng": 9.79324, "web": "https:\/\/www.apotheke-am-klingerplatz-app.de" }, "geometry": { "type": "Point", "coordinates": [ 9.79324, 52.40217 ] } },
{ "type": "Feature", "properties": { "id": "7e26a9cd941f", "name": "Apotheke am Kronenplatz", "adr": "Marktstr. 1", "zip": 71364, "city": "Winnenden", "tel": "07195\/92340", "lat": 48.8772619, "lng": 9.3964472, "web": null }, "geometry": { "type": "Point", "coordinates": [ 9.3964472, 48.8772619 ] } },
{ "type": "Feature", "properties": { "id": "f5f2d8d81374", "name": "Harz-Apotheke", "adr": "Hauptstr. 32", "zip": 6502, "city": "Thale", "tel": "039487\/362", "lat": 51.68924, "lng": 11.03829, "web": "http:\/\/www.apo-harz.de" }, "geometry": { "type": "Point", "coordinates": [ 11.03829, 51.68924 ] } },
{ "type": "Feature", "properties": { "id": "94bb5bb2d691", "name": "Habsburger-Apotheke", "adr": "Hohenstaufenallee 19", "zip": 52064, "city": "Aachen", "tel": "0241\/76746", "lat": 50.7644211, "lng": 6.0776844, "web": null }, "geometry": { "type": "Point", "coordinates": [ 6.0776844, 50.7644211 ] } },
{ "type": "Feature", "properties": { "id": "1c8efa74f8e1", "name": "Hagenbach-Apotheke", "adr": "Hagenbacher Ring 32", "zip": 74523, "city": "Schwäbisch Hall", "tel": "0791\/51644", "lat": 49.1002241, "lng": 9.7367971, "web": null }, "geometry": { "type": "Point", "coordinates": [ 9.7367971, 49.1002241 ] } },
{ "type": "Feature", "properties": { "id": "9d8a70519b09", "name": "Apotheke am Nymphengarten", "adr": "Kriegsstr. 29", "zip": 76133, "city": "Karlsruhe", "tel": "0721\/356377", "lat": 49.0052516, "lng": 8.3986872, "web": null }, "geometry": { "type": "Point", "coordinates": [ 8.3986872, 49.0052516 ] } },
{ "type": "Feature", "properties": { "id": "2bad1679d5e7", "name": "Apotheke am Ottilienplatz", "adr": "Ottilienplatz 17", "zip": 73728, "city": "Esslingen", "tel": "0711\/354364", "lat": 48.7404296, "lng": 9.3121702, "web": "http:\/\/www.apotheke-ottilienplatz-app.de" }, "geometry": { "type": "Point", "coordinates": [ 9.3121702, 48.7404296 ] } },
{ "type": "Feature", "properties": { "id": "6a280b7a9745", "name": "Apotheke am Paulushof", "adr": "Dingbängerweg 31", "zip": 48163, "city": "Münster", "tel": "0251\/32265877", "lat": 51.9293854, "lng": 7.5813366, "web": null }, "geometry": { "type": "Point", "coordinates": [ 7.5813366, 51.9293854 ] } },
{ "type": "Feature", "properties": { "id": "cf0936e4f362", "name": "Heide-Apotheke", "adr": "Steinförder Str. 28", "zip": 29323, "city": "Wietze", "tel": "05146\/8473", "lat": 52.6523941, "lng": 9.8442251, "web": null }, "geometry": { "type": "Point", "coordinates": [ 9.8442251, 52.6523941 ] } },
{ "type": "Feature", "properties": { "id": "015343fdc5b3", "name": "Heilig-Kreuz-Apotheke", "adr": "Donaupark 6", "zip": 93309, "city": "Kelheim", "tel": "09441\/10295", "lat": 48.9128847, "lng": 11.8717056, "web": "http:\/\/www.heilig-kreuz-apotheke-app.de" }, "geometry": { "type": "Point", "coordinates": [ 11.8717056, 48.9128847 ] } },
{ "type": "Feature", "properties": { "id": "cee1b0f1642e", "name": "Alte Rats Apotheke", "adr": "Großflecken 55", "zip": 24534, "city": "Neumünster", "tel": "04321\/44160", "lat": 54.0705784, "lng": 9.9879564, "web": null }, "geometry": { "type": "Point", "coordinates": [ 9.9879564, 54.0705784 ] } },
{ "type": "Feature", "properties": { "id": "b74e5e173459", "name": "Echtern-Apotheke", "adr": "Echternstr. 3", "zip": 31655, "city": "Stadthagen", "tel": "05721\/2160", "lat": 52.324622, "lng": 9.2042865, "web": null }, "geometry": { "type": "Point", "coordinates": [ 9.2042865, 52.324622 ] } },
{ "type": "Feature", "properties": { "id": "5dfc6398417b", "name": "Alte Stadt-Apotheke", "adr": "Baderdamm 17", "zip": 4610, "city": "Meuselwitz", "tel": "03448\/703330", "lat": 51.0430405, "lng": 12.3014435, "web": "http:\/\/www.apotheke-meuselwitz-app.de" }, "geometry": { "type": "Point", "coordinates": [ 12.3014435, 51.0430405 ] } },
{ "type": "Feature", "properties": { "id": "2eabbdccb9a1", "name": "Alte Sonnen-Apotheke OHG", "adr": "Markt 2", "zip": 49740, "city": "Haselünne", "tel": "05961\/294", "lat": 52.6737258, "lng": 7.4863613, "web": "http:\/\/www.alte-sonnen-apotheke-app.de" }, "geometry": { "type": "Point", "coordinates": [ 7.4863613, 52.6737258 ] } },
{ "type": "Feature", "properties": { "id": "3e17eb819d16", "name": "Alte Stadt-Apotheke", "adr": "Markt 12", "zip": 49716, "city": "Meppen", "tel": "05931\/12500", "lat": 52.6915099, "lng": 7.2913874, "web": null }, "geometry": { "type": "Point", "coordinates": [ 7.2913874, 52.6915099 ] } },
{ "type": "Feature", "properties": { "id": "e701815b6d60", "name": "Alt Marzahner Apotheke", "adr": "Allee der Kosmonauten 198", "zip": 12685, "city": "Berlin", "tel": "030\/54397720", "lat": 52.5406629, "lng": 13.5635875, "web": "http:\/\/www.alt-marzahner-apotheke-app.de" }, "geometry": { "type": "Point", "coordinates": [ 13.5635875, 52.5406629 ] } },
{ "type": "Feature", "properties": { "id": "4f13bdada3c0", "name": "Eichen-Apotheke", "adr": "Hauptstr. 88", "zip": 90547, "city": "Stein", "tel": "0911\/687818", "lat": 49.4120348, "lng": 11.0079418, "web": "http:\/\/www.eichenapotheke-stein-app.de" }, "geometry": { "type": "Point", "coordinates": [ 11.0079418, 49.4120348 ] } },
{ "type": "Feature", "properties": { "id": "0db5f79e6b65", "name": "Einhorn-Apotheke", "adr": "Schloßstr. 12", "zip": 25876, "city": "Schwabstedt", "tel": "04884\/688", "lat": 54.3976945, "lng": 9.1823452, "web": null }, "geometry": { "type": "Point", "coordinates": [ 9.1823452, 54.3976945 ] } },
{ "type": "Feature", "properties": { "id": "19780cef8726", "name": "Einhorn-Apotheke", "adr": "Rathausstr. 22", "zip": 9306, "city": "Rochlitz", "tel": "03737\/42077", "lat": 51.04601, "lng": 12.80007, "web": null }, "geometry": { "type": "Point", "coordinates": [ 12.80007, 51.04601 ] } },
{ "type": "Feature", "properties": { "id": "763f9e56f6fa", "name": "Eichenkreuz-Apotheke", "adr": "Itterstr. 17", "zip": 40589, "city": "Düsseldorf", "tel": "0211\/791990", "lat": 51.17411, "lng": 6.83142, "web": "http:\/\/www.eichenkreuz-apotheke-app.de" }, "geometry": { "type": "Point", "coordinates": [ 6.83142, 51.17411 ] } },
{ "type": "Feature", "properties": { "id": "e524f5c12c05", "name": "Spitzweg-Apotheke", "adr": "Düsseldorfer Str. 63", "zip": 45481, "city": "Mülheim", "tel": "0208\/481323", "lat": 51.4043, "lng": 6.8757197, "web": null }, "geometry": { "type": "Point", "coordinates": [ 6.8757197, 51.4043 ] } },
{ "type": "Feature", "properties": { "id": "7abb83732d92", "name": "Einhorn-Apotheke", "adr": "Gräfenberger Str. 14", "zip": 91054, "city": "Buckenhof", "tel": "09131\/59404", "lat": 49.593216, "lng": 11.0473732, "web": null }, "geometry": { "type": "Point", "coordinates": [ 11.0473732, 49.593216 ] } },
{ "type": "Feature", "properties": { "id": "4cc050827122", "name": "Altstadt-Apotheke", "adr": "Geleitsgasse 6", "zip": 90762, "city": "Fürth", "tel": "0911\/779682", "lat": 49.47919, "lng": 10.9855, "web": null }, "geometry": { "type": "Point", "coordinates": [ 10.9855, 49.47919 ] } },
{ "type": "Feature", "properties": { "id": "adddac452c83", "name": "Altstadt-Apotheke", "adr": "Hauptstr. 37", "zip": 92339, "city": "Beilngries", "tel": "08461\/1617", "lat": 49.0355226, "lng": 11.4729256, "web": "https:\/\/www.altstadtapotheke-beilngries-app.de" }, "geometry": { "type": "Point", "coordinates": [ 11.4729256, 49.0355226 ] } },
{ "type": "Feature", "properties": { "id": "30519fee84e6", "name": "Elch Apotheke", "adr": "St. Stephanus-Passage 29", "zip": 21337, "city": "Lüneburg", "tel": "04131\/86130", "lat": 53.2395021, "lng": 10.4350721, "web": null }, "geometry": { "type": "Point", "coordinates": [ 10.4350721, 53.2395021 ] } },
{ "type": "Feature", "properties": { "id": "0eec8cb59fec", "name": "Altstadt-Apotheke", "adr": "Freyung 12", "zip": 92536, "city": "Pfreimd", "tel": "09606\/307", "lat": 49.494245, "lng": 12.1830742, "web": null }, "geometry": { "type": "Point", "coordinates": [ 12.1830742, 49.494245 ] } },
{ "type": "Feature", "properties": { "id": "dd0eec0ff74e", "name": "Spitzweg-Apotheke", "adr": "Felix-Dahn-Str. 11 A", "zip": 70597, "city": "Stuttgart", "tel": "0711\/766465", "lat": 48.7485066, "lng": 9.1703391, "web": "http:\/\/www.spitzweg-apotheke-stuttgart-app.de" }, "geometry": { "type": "Point", "coordinates": [ 9.1703391, 48.7485066 ] } },
{ "type": "Feature", "properties": { "id": "e4a6123be8d5", "name": "Einhorn-Apotheke", "adr": "Poststr. 34", "zip": 53111, "city": "Bonn", "tel": "0228\/652833", "lat": 50.7339617, "lng": 7.0984776, "web": null }, "geometry": { "type": "Point", "coordinates": [ 7.0984776, 50.733961699999988 ] } },
{ "type": "Feature", "properties": { "id": "297407bbfcef", "name": "Amalien Apotheke", "adr": "Bahnhofstr. 17", "zip": 85737, "city": "Ismaning", "tel": "089\/968454", "lat": 48.2246255, "lng": 11.6730041, "web": "http:\/\/www.amalien-apotheke-ismaning.de" }, "geometry": { "type": "Point", "coordinates": [ 11.6730041, 48.224625499999988 ] } },
{ "type": "Feature", "properties": { "id": "1398b63a6f4e", "name": "Amalien-Apotheke", "adr": "Richard-Wagner-Str. 6", "zip": 76275, "city": "Ettlingen", "tel": "07243\/91991", "lat": 48.9238, "lng": 8.36442, "web": null }, "geometry": { "type": "Point", "coordinates": [ 8.36442, 48.9238 ] } },
{ "type": "Feature", "properties": { "id": "c18e20230952", "name": "Stadt-Apotheke", "adr": "Georgstr. 26", "zip": 98617, "city": "Meiningen", "tel": "03693\/44700", "lat": 50.5688956, "lng": 10.4152675, "web": null }, "geometry": { "type": "Point", "coordinates": [ 10.4152675, 50.5688956 ] } },
{ "type": "Feature", "properties": { "id": "362968bb7791", "name": "Amandus-Apotheke", "adr": "Heibeckstr. 4", "zip": 45711, "city": "Datteln", "tel": "02363\/561270", "lat": 51.6532501, "lng": 7.3439571, "web": "http:\/\/www.amandus-apotheke-datteln.de" }, "geometry": { "type": "Point", "coordinates": [ 7.3439571, 51.6532501 ] } },
{ "type": "Feature", "properties": { "id": "d48c028f56a3", "name": "Stadt-Apotheke", "adr": "Bahnhofstr. 19\/1", "zip": 73728, "city": "Esslingen", "tel": "0711\/356464", "lat": 48.740049, "lng": 9.3026987, "web": "http:\/\/www.stadt-apo-esslingen.de" }, "geometry": { "type": "Point", "coordinates": [ 9.3026987, 48.740049 ] } },
{ "type": "Feature", "properties": { "id": "b52e05dfe1b8", "name": "Amboss-Apotheke", "adr": "Hauptstr. 53", "zip": 42349, "city": "Wuppertal", "tel": "0202\/474141", "lat": 51.2072414, "lng": 7.1333925, "web": "http:\/\/www.amboss-apotheke-app.de" }, "geometry": { "type": "Point", "coordinates": [ 7.1333925, 51.2072414 ] } },
{ "type": "Feature", "properties": { "id": "8956790a2cbf", "name": "Elefanten-Apotheke", "adr": "Oppenhoffallee 83\/85", "zip": 52066, "city": "Aachen", "tel": "0241\/501525", "lat": 50.7702326, "lng": 6.1057017, "web": null }, "geometry": { "type": "Point", "coordinates": [ 6.1057017, 50.7702326 ] } },
{ "type": "Feature", "properties": { "id": "0d448a2e8681", "name": "Amperapotheke am Bahnhof Esting", "adr": "Dachauer Str. 5", "zip": 82140, "city": "Olching", "tel": "08142\/13808", "lat": 48.21327, "lng": 11.31934, "web": "http:\/\/www.amper-apo.de" }, "geometry": { "type": "Point", "coordinates": [ 11.31934, 48.21327 ] } },
{ "type": "Feature", "properties": { "id": "0088e9aa6733", "name": "Elsava Apotheke", "adr": "Erlenbacher Str. 16", "zip": 63820, "city": "Elsenfeld", "tel": "06022\/9100", "lat": 49.8394037, "lng": 9.1583543, "web": null }, "geometry": { "type": "Point", "coordinates": [ 9.1583543, 49.8394037 ] } },
{ "type": "Feature", "properties": { "id": "d567295ac61b", "name": "Amts-Apotheke", "adr": "Limbecker Str. 54", "zip": 44388, "city": "Dortmund", "tel": "0231\/632835", "lat": 51.49988, "lng": 7.33175, "web": "http:\/\/www.amts-apotheke-dortmund-app.de" }, "geometry": { "type": "Point", "coordinates": [ 7.33175, 51.49988 ] } },
{ "type": "Feature", "properties": { "id": "84ad15ed0449", "name": "Engel Apotheke", "adr": "Kölner Str. 5", "zip": 42929, "city": "Wermelskirchen", "tel": "02196\/4857", "lat": 51.1400227, "lng": 7.2155831, "web": null }, "geometry": { "type": "Point", "coordinates": [ 7.2155831, 51.1400227 ] } },
{ "type": "Feature", "properties": { "id": "631c596ed29f", "name": "Stadt-Apotheke", "adr": "Moorstr. 50-52", "zip": 29664, "city": "Walsrode", "tel": "05161\/71155", "lat": 52.8624251, "lng": 9.5910578, "web": "http:\/\/www.stadt-apotheke-walsrode.de" }, "geometry": { "type": "Point", "coordinates": [ 9.5910578, 52.8624251 ] } },
{ "type": "Feature", "properties": { "id": "0bb2f2263eac", "name": "Engel-Apotheke", "adr": "Maximilianstr. 55", "zip": 87719, "city": "Mindelheim", "tel": "08261\/7637460", "lat": 48.0459627, "lng": 10.4873201, "web": null }, "geometry": { "type": "Point", "coordinates": [ 10.4873201, 48.0459627 ] } },
{ "type": "Feature", "properties": { "id": "3f03fd5f6dca", "name": "Stadt-Apotheke", "adr": "Mühlenstr. 2", "zip": 34434, "city": "Borgentreich", "tel": "05643\/8170", "lat": 51.5685428, "lng": 9.2396545, "web": "http:\/\/www.stadt-apotheke-borgentreich-app.de" }, "geometry": { "type": "Point", "coordinates": [ 9.2396545, 51.5685428 ] } },
{ "type": "Feature", "properties": { "id": "ac7da46be678", "name": "Amts-Apotheke", "adr": "Wertherstr. 434", "zip": 33619, "city": "Bielefeld", "tel": "0521\/105330", "lat": 52.04878, "lng": 8.45664, "web": "http:\/\/www.amts-apotheke-bielefeld.de" }, "geometry": { "type": "Point", "coordinates": [ 8.45664, 52.04878 ] } },
{ "type": "Feature", "properties": { "id": "6cc1f99dc06c", "name": "Andreas Apotheke", "adr": "Soestenstr. 11", "zip": 49661, "city": "Cloppenburg", "tel": "04471\/1866450", "lat": 52.84526, "lng": 8.03601, "web": null }, "geometry": { "type": "Point", "coordinates": [ 8.03601, 52.84526 ] } },
{ "type": "Feature", "properties": { "id": "9a4aedcd1efc", "name": "Altstadt-Apotheke", "adr": "Albrecht-Dürer-Platz 11", "zip": 90403, "city": "Nürnberg", "tel": "0911\/232527", "lat": 49.4562838, "lng": 11.0756175, "web": null }, "geometry": { "type": "Point", "coordinates": [ 11.0756175, 49.456283799999987 ] } },
{ "type": "Feature", "properties": { "id": "f8a521b408ce", "name": "Altstadt-Apotheke", "adr": "Michaelisstr. 31", "zip": 99084, "city": "Erfurt", "tel": "0361\/2603433", "lat": 50.9802072, "lng": 11.0268958, "web": null }, "geometry": { "type": "Point", "coordinates": [ 11.0268958, 50.9802072 ] } },
{ "type": "Feature", "properties": { "id": "13bfe203180b", "name": "Eichen-Apotheke", "adr": "Lüneburger Str. 7", "zip": 21394, "city": "Kirchgellersen", "tel": "04135\/820731", "lat": 53.230544, "lng": 10.2946078, "web": null }, "geometry": { "type": "Point", "coordinates": [ 10.2946078, 53.230544 ] } },
{ "type": "Feature", "properties": { "id": "12308d40d3e4", "name": "Spangenberg-Apotheke", "adr": "Steinweg 31", "zip": 98527, "city": "Suhl", "tel": "03681\/79130", "lat": 50.6087029, "lng": 10.6911869, "web": "http:\/\/www.spangenberg-apotheke-suhl.de" }, "geometry": { "type": "Point", "coordinates": [ 10.6911869, 50.6087029 ] } },
{ "type": "Feature", "properties": { "id": "640158793ce7", "name": "Sprudel Apotheke", "adr": "Romsthaler Str. 12", "zip": 63628, "city": "Bad Soden-Salmünster", "tel": "06056\/1295", "lat": 50.28917, "lng": 9.3683, "web": "https:\/\/www.sprudelapotheke-badsoden.de" }, "geometry": { "type": "Point", "coordinates": [ 9.3683, 50.28917 ] } },
{ "type": "Feature", "properties": { "id": "6210ddfee287", "name": "Altstadt-Apotheke am Brink", "adr": "Brink 7", "zip": 36251, "city": "Bad Hersfeld", "tel": "06621\/77750", "lat": 50.86615, "lng": 9.70545, "web": null }, "geometry": { "type": "Point", "coordinates": [ 9.70545, 50.86615 ] } },
{ "type": "Feature", "properties": { "id": "20a85041ec15", "name": "Einhorn-Apotheke", "adr": "Mendener Str. 1", "zip": 58636, "city": "Iserlohn", "tel": "02371\/23500", "lat": 51.3741097, "lng": 7.702565, "web": "http:\/\/www.einhorn-apotheke-iserlohn-app.de" }, "geometry": { "type": "Point", "coordinates": [ 7.702565, 51.3741097 ] } },
{ "type": "Feature", "properties": { "id": "841cb8b4419d", "name": "Einhorn-Apotheke", "adr": "Stadtweg 117", "zip": 21680, "city": "Stade", "tel": "04141\/2130", "lat": 53.5710299, "lng": 9.4702033, "web": "https:\/\/www.einhorn-apotheke-stade.de" }, "geometry": { "type": "Point", "coordinates": [ 9.4702033, 53.5710299 ] } },
{ "type": "Feature", "properties": { "id": "08a7bc74afdf", "name": "Einrich Apotheke", "adr": "Untertalstr. 31", "zip": 56368, "city": "Katzenelnbogen", "tel": "06486\/1808", "lat": 50.2682944, "lng": 7.974203, "web": "http:\/\/www.einrich-apotheke-app.de" }, "geometry": { "type": "Point", "coordinates": [ 7.974203, 50.268294399999988 ] } },
{ "type": "Feature", "properties": { "id": "41ea16768e14", "name": "Altstädter Apotheke", "adr": "Altstadt 22", "zip": 95028, "city": "Hof", "tel": "09281\/3332", "lat": 50.3178185, "lng": 11.9152736, "web": null }, "geometry": { "type": "Point", "coordinates": [ 11.9152736, 50.317818499999987 ] } },
{ "type": "Feature", "properties": { "id": "cab8bf57c733", "name": "Stadt-Apotheke", "adr": "Julius-Heuss-Str. 21", "zip": 75387, "city": "Neubulach", "tel": "07053\/6000", "lat": 48.6607292, "lng": 8.6924775, "web": null }, "geometry": { "type": "Point", "coordinates": [ 8.6924775, 48.6607292 ] } },
{ "type": "Feature", "properties": { "id": "30e05132349f", "name": "Stadt-Apotheke", "adr": "Bismarckstr. 9", "zip": 88161, "city": "Lindenberg", "tel": "Fax:\/08381\/940088", "lat": 47.6037058, "lng": 9.8875021, "web": null }, "geometry": { "type": "Point", "coordinates": [ 9.8875021, 47.6037058 ] } },
{ "type": "Feature", "properties": { "id": "65f7af44157d", "name": "Elefanten-Apotheke", "adr": "Salmstr. 20", "zip": 52222, "city": "Stolberg", "tel": "02402\/23411", "lat": 50.7770349, "lng": 6.2232405, "web": null }, "geometry": { "type": "Point", "coordinates": [ 6.2232405, 50.7770349 ] } },
{ "type": "Feature", "properties": { "id": "1565665786be", "name": "Elefanten-Apotheke", "adr": "Willicher Str. 1", "zip": 40670, "city": "Meerbusch", "tel": "02159\/51166", "lat": 51.268406, "lng": 6.6205811, "web": "http:\/\/www.elefanten-apotheke-meerbusch.de" }, "geometry": { "type": "Point", "coordinates": [ 6.6205811, 51.268406 ] } },
{ "type": "Feature", "properties": { "id": "a287dcc5d015", "name": "Elisabeth-Apotheke", "adr": "Untere Hauptstr. 59", "zip": 67551, "city": "Worms", "tel": "06241\/93030", "lat": 49.6106651, "lng": 8.3218032, "web": null }, "geometry": { "type": "Point", "coordinates": [ 8.3218032, 49.6106651 ] } },
{ "type": "Feature", "properties": { "id": "ad38ec5028b6", "name": "Elisabeth-Apotheke", "adr": "Frankfurter Str. 62 A", "zip": 97082, "city": "Würzburg", "tel": "0931\/42266", "lat": 49.7944905, "lng": 9.9041964, "web": null }, "geometry": { "type": "Point", "coordinates": [ 9.9041964, 49.794490499999988 ] } },
{ "type": "Feature", "properties": { "id": "5b5428265419", "name": "Altstädtische Apotheke", "adr": "Steinstr. 1", "zip": 14712, "city": "Rathenow", "tel": "03385\/57360", "lat": 52.6072806, "lng": 12.335368, "web": null }, "geometry": { "type": "Point", "coordinates": [ 12.335368, 52.6072806 ] } },
{ "type": "Feature", "properties": { "id": "b4777bcac31e", "name": "Elster-Apotheke", "adr": "Fröbelstr. 15", "zip": 7548, "city": "Gera", "tel": "0365\/77390112", "lat": 50.8628787, "lng": 12.0753746, "web": "http:\/\/www.elster-apotheke-gera-app.de" }, "geometry": { "type": "Point", "coordinates": [ 12.0753746, 50.8628787 ] } },
{ "type": "Feature", "properties": { "id": "3dcdf9b85b74", "name": "St. Severin-Apotheke", "adr": "Kiarwai 12", "zip": 25980, "city": "Sylt", "tel": "04651\/3624", "lat": 54.9015975, "lng": 8.3280502, "web": null }, "geometry": { "type": "Point", "coordinates": [ 8.3280502, 54.901597499999987 ] } },
{ "type": "Feature", "properties": { "id": "1f69b2f1573d", "name": "Engel-Apotheke", "adr": "Steindamm 32", "zip": 20099, "city": "Hamburg", "tel": "040\/245350", "lat": 53.5535892, "lng": 10.0128826, "web": null }, "geometry": { "type": "Point", "coordinates": [ 10.0128826, 53.5535892 ] } },
{ "type": "Feature", "properties": { "id": "a56c32c9205e", "name": "St. Raphael-Apotheke", "adr": "Fallmerayerstr. 1", "zip": 80796, "city": "München", "tel": "089\/2711150", "lat": 48.1607025, "lng": 11.5729421, "web": null }, "geometry": { "type": "Point", "coordinates": [ 11.5729421, 48.1607025 ] } },
{ "type": "Feature", "properties": { "id": "a2e3e0be34fc", "name": "Emscher-Apotheke", "adr": "Im Emscherbruch 84", "zip": 45892, "city": "Gelsenkirchen", "tel": "0209\/72706", "lat": 51.5640383, "lng": 7.1094811, "web": null }, "geometry": { "type": "Point", "coordinates": [ 7.1094811, 51.5640383 ] } },
{ "type": "Feature", "properties": { "id": "3db41b382eaf", "name": "Engel Apotheke", "adr": "Dr.-Robert-Schelp-Platz 1", "zip": 66953, "city": "Pirmasens", "tel": "06331\/75676", "lat": 49.204871, "lng": 7.6076262, "web": "http:\/\/www.engelapotheke-pirmasens.de" }, "geometry": { "type": "Point", "coordinates": [ 7.6076262, 49.204871 ] } },
{ "type": "Feature", "properties": { "id": "df43e6654d81", "name": "Sundgau-Apotheke", "adr": "Berliner Str. 43 B", "zip": 14169, "city": "Berlin", "tel": "030\/8117588", "lat": 52.4386, "lng": 13.27067, "web": null }, "geometry": { "type": "Point", "coordinates": [ 13.27067, 52.4386 ] } },
{ "type": "Feature", "properties": { "id": "c1dd4f386b68", "name": "Amalien-Apotheke", "adr": "Berliner Allee 196", "zip": 13088, "city": "Berlin", "tel": "030\/9250345", "lat": 52.5561537, "lng": 13.4675725, "web": "http:\/\/www.amalien-apotheke-berlin-app.de" }, "geometry": { "type": "Point", "coordinates": [ 13.4675725, 52.5561537 ] } },
{ "type": "Feature", "properties": { "id": "f2bd333710e3", "name": "St. Ursula-Apotheke", "adr": "Münchner Freiheit 8", "zip": 80802, "city": "München", "tel": "089\/395215", "lat": 48.1624683, "lng": 11.5872733, "web": null }, "geometry": { "type": "Point", "coordinates": [ 11.5872733, 48.1624683 ] } },
{ "type": "Feature", "properties": { "id": "a38c2f8d3d65", "name": "Amalien-Apotheke", "adr": "Robert-Koch-Str. 36", "zip": 37308, "city": "Heilbad Heiligenstadt", "tel": "03606\/506650", "lat": 51.37589, "lng": 10.13917, "web": "http:\/\/www.amalienapotheke-app.de" }, "geometry": { "type": "Point", "coordinates": [ 10.13917, 51.37589 ] } },
{ "type": "Feature", "properties": { "id": "9f713910ead6", "name": "Süd-Apotheke", "adr": "Giesbertstr. 1", "zip": 45731, "city": "Waltrop", "tel": "02309\/91387", "lat": 51.6180186, "lng": 7.4025746, "web": "http:\/\/www.sued-apotheke-app.de" }, "geometry": { "type": "Point", "coordinates": [ 7.4025746, 51.6180186 ] } },
{ "type": "Feature", "properties": { "id": "6d658ec5bcbd", "name": "Engel-Apotheke", "adr": "Nürnberger Str. 8", "zip": 91177, "city": "Thalmässing", "tel": "09173\/79600", "lat": 49.08859, "lng": 11.21705, "web": "http:\/\/www.engel-apotheke-thalmaessing-app.de" }, "geometry": { "type": "Point", "coordinates": [ 11.21705, 49.08859 ] } },
{ "type": "Feature", "properties": { "id": "8e7ba3b7b757", "name": "Süd-Apotheke", "adr": "Münchener Str. 99", "zip": 85051, "city": "Ingolstadt", "tel": "0841\/72190", "lat": 48.7429973, "lng": 11.4342896, "web": "http:\/\/www.sued-apotheke-ingolstadt.de" }, "geometry": { "type": "Point", "coordinates": [ 11.4342896, 48.7429973 ] } },
{ "type": "Feature", "properties": { "id": "73f57d932c6f", "name": "Engel-Apotheke", "adr": "Fürstenstr. 2", "zip": 67065, "city": "Ludwigshafen", "tel": "0621\/574015", "lat": 49.4609642, "lng": 8.4278777, "web": null }, "geometry": { "type": "Point", "coordinates": [ 8.4278777, 49.4609642 ] } },
{ "type": "Feature", "properties": { "id": "791537ad7c02", "name": "Engel-Apotheke", "adr": "Kaiserstr. 127", "zip": 52146, "city": "Würselen", "tel": "02405\/419444", "lat": 50.824114, "lng": 6.1287654, "web": null }, "geometry": { "type": "Point", "coordinates": [ 6.1287654, 50.824114 ] } },
{ "type": "Feature", "properties": { "id": "3de443746c9a", "name": "Tiergarten-Apotheke", "adr": "Strietweg 70", "zip": 75181, "city": "Pforzheim", "tel": "07231\/414500", "lat": 48.8811011, "lng": 8.7304629, "web": "http:\/\/www.tiergartenapo-app.de" }, "geometry": { "type": "Point", "coordinates": [ 8.7304629, 48.8811011 ] } },
{ "type": "Feature", "properties": { "id": "da4b12463028", "name": "Amavita-Apotheke", "adr": "Rebgasse 10", "zip": 4058, "city": "Basel", "tel": "58\/6909680", "lat": 47.561164, "lng": 7.593479, "web": null }, "geometry": { "type": "Point", "coordinates": [ 7.593479, 47.561164 ] } },
{ "type": "Feature", "properties": { "id": "d2880c8f6db8", "name": "Ambergau-Apotheke", "adr": "Bönnier Str. 28", "zip": 31167, "city": "Bockenem", "tel": "05067\/1666", "lat": 52.0095115, "lng": 10.1266163, "web": null }, "geometry": { "type": "Point", "coordinates": [ 10.1266163, 52.0095115 ] } },
{ "type": "Feature", "properties": { "id": "e5def353f126", "name": "Sonnenwald-Apotheke", "adr": "Bahnhofstr. 33", "zip": 94508, "city": "Schöllnach", "tel": "09903\/8880", "lat": 48.751499, "lng": 13.181007, "web": null }, "geometry": { "type": "Point", "coordinates": [ 13.181007, 48.751499 ] } },
{ "type": "Feature", "properties": { "id": "c0b1f55e9824", "name": "Eichhorn-Apotheke", "adr": "Heidelberger Str. 29", "zip": 64342, "city": "Seeheim-Jugenheim", "tel": "06257\/82177", "lat": 49.7716207, "lng": 8.6458824, "web": "http:\/\/www.eichhorn-apotheke-seeheim.de" }, "geometry": { "type": "Point", "coordinates": [ 8.6458824, 49.7716207 ] } },
{ "type": "Feature", "properties": { "id": "67fc0ea6e17f", "name": "Spitzweg Apotheke", "adr": "Wickeder Hellweg 108", "zip": 44319, "city": "Dortmund", "tel": "0231\/211992", "lat": 51.5327, "lng": 7.61275, "web": "https:\/\/www.spitzweg-apotheke-dortmund-app.de" }, "geometry": { "type": "Point", "coordinates": [ 7.61275, 51.5327 ] } },
{ "type": "Feature", "properties": { "id": "20cbf4916bc6", "name": "Amthof-Apotheke", "adr": "Brettener Str. 27", "zip": 75038, "city": "Oberderdingen", "tel": "07045\/8422", "lat": 49.06079, "lng": 8.80147, "web": "http:\/\/www.amthof-apotheke-app.de" }, "geometry": { "type": "Point", "coordinates": [ 8.80147, 49.06079 ] } },
{ "type": "Feature", "properties": { "id": "dd89babb90eb", "name": "Stadt Apotheke", "adr": "Götzstr. 17", "zip": 74238, "city": "Krautheim", "tel": "06294\/42100", "lat": 49.3851363, "lng": 9.6357363, "web": "http:\/\/www.stadt-apotheke-krautheim.de" }, "geometry": { "type": "Point", "coordinates": [ 9.6357363, 49.3851363 ] } },
{ "type": "Feature", "properties": { "id": "40268416b421", "name": "Einhorn-Apotheke", "adr": "Rathausplatz 11", "zip": 67227, "city": "Frankenthal", "tel": "06233\/27334", "lat": 49.5356478, "lng": 8.3538211, "web": null }, "geometry": { "type": "Point", "coordinates": [ 8.3538211, 49.5356478 ] } },
{ "type": "Feature", "properties": { "id": "9ebe56037f35", "name": "Stadt-Apotheke", "adr": "Schwarzenberger Str. 20", "zip": 91443, "city": "Scheinfeld", "tel": "09162\/249", "lat": 49.6667678, "lng": 10.4665958, "web": "http:\/\/www.apotheke-scheinfeld-app.de" }, "geometry": { "type": "Point", "coordinates": [ 10.4665958, 49.6667678 ] } },
{ "type": "Feature", "properties": { "id": "9b6059a5a5db", "name": "Elefanten-Apotheke", "adr": "Steinstr. 14", "zip": 48565, "city": "Steinfurt", "tel": "02551\/5435", "lat": 52.1481764, "lng": 7.3384332, "web": "http:\/\/www.elefantenapo-app.de" }, "geometry": { "type": "Point", "coordinates": [ 7.3384332, 52.1481764 ] } },
{ "type": "Feature", "properties": { "id": "b8073b904d85", "name": "Amtsapotheke in Dillenburg", "adr": "Wilhelmsplatz 14", "zip": 35683, "city": "Dillenburg", "tel": "02771\/7055", "lat": 50.73791, "lng": 8.28851, "web": null }, "geometry": { "type": "Point", "coordinates": [ 8.28851, 50.73791 ] } },
{ "type": "Feature", "properties": { "id": "aa57bbbaa80c", "name": "Stadt-Apotheke", "adr": "Darmstädter Str. 32", "zip": 64673, "city": "Zwingenberg", "tel": "06251\/73021", "lat": 49.7274868, "lng": 8.6111788, "web": "http:\/\/www.stadt-apotheke-zwingenberg.de" }, "geometry": { "type": "Point", "coordinates": [ 8.6111788, 49.7274868 ] } },
{ "type": "Feature", "properties": { "id": "948049113b7f", "name": "Amtshaus-Apotheke", "adr": "Harkortstr. 18", "zip": 44225, "city": "Dortmund", "tel": "0231\/711600", "lat": 51.4755187, "lng": 7.4433685, "web": "http:\/\/www.apo-amtshaus-app.de" }, "geometry": { "type": "Point", "coordinates": [ 7.4433685, 51.475518699999988 ] } },
{ "type": "Feature", "properties": { "id": "1d4c8b089a03", "name": "Andrea-Apotheke", "adr": "Limmerstr. 17", "zip": 30451, "city": "Hannover", "tel": "0511\/4581011", "lat": 52.3723202, "lng": 9.710375, "web": null }, "geometry": { "type": "Point", "coordinates": [ 9.710375, 52.3723202 ] } },
{ "type": "Feature", "properties": { "id": "28ce36ec0c16", "name": "Andreas-Apotheke", "adr": "Wilhelmstr. 22", "zip": 33378, "city": "Rheda-Wiedenbrück", "tel": "05242\/966900", "lat": 51.8552467, "lng": 8.2910804, "web": null }, "geometry": { "type": "Point", "coordinates": [ 8.2910804, 51.8552467 ] } },
{ "type": "Feature", "properties": { "id": "90872be32e6d", "name": "Andreas-Apotheke", "adr": "Lookenstr. 12", "zip": 49808, "city": "Lingen", "tel": "0591\/1333", "lat": 52.52099, "lng": 7.31719, "web": null }, "geometry": { "type": "Point", "coordinates": [ 7.31719, 52.52099 ] } },
{ "type": "Feature", "properties": { "id": "7c3c033f5301", "name": "Engel-Apotheke", "adr": "Uerdinger Str. 1", "zip": 47799, "city": "Krefeld", "tel": "02151\/21401", "lat": 51.3346907, "lng": 6.5715913, "web": "http:\/\/www.engel-apotheke-krefeld-app.de" }, "geometry": { "type": "Point", "coordinates": [ 6.5715913, 51.3346907 ] } },
{ "type": "Feature", "properties": { "id": "5a2729a765ae", "name": "Stadt-Apotheke", "adr": "Nürnberger Str. 39", "zip": 63450, "city": "Hanau", "tel": "06181\/921597", "lat": 50.132263, "lng": 8.9185689, "web": null }, "geometry": { "type": "Point", "coordinates": [ 8.9185689, 50.132263 ] } },
{ "type": "Feature", "properties": { "id": "290bf69cd647", "name": "Anker Apotheke", "adr": "Arminstr. 24", "zip": 45879, "city": "Gelsenkirchen", "tel": "0209\/202370", "lat": 51.5091342, "lng": 7.0996289, "web": null }, "geometry": { "type": "Point", "coordinates": [ 7.0996289, 51.509134200000013 ] } },
{ "type": "Feature", "properties": { "id": "7874bbab21d6", "name": "Engel-Apotheke", "adr": "Kirchstr. 3", "zip": 88212, "city": "Ravensburg", "tel": "0751\/23292", "lat": 47.7823381, "lng": 9.6137673, "web": "http:\/\/www.engel-apotheke-ravensburg-app.de" }, "geometry": { "type": "Point", "coordinates": [ 9.6137673, 47.7823381 ] } },
{ "type": "Feature", "properties": { "id": "c416e2876da9", "name": "Stadt-Apotheke", "adr": "Anton-Sommer-Str. 1", "zip": 7407, "city": "Rudolstadt", "tel": "03672\/424526", "lat": 50.7192878, "lng": 11.3353151, "web": null }, "geometry": { "type": "Point", "coordinates": [ 11.3353151, 50.7192878 ] } },
{ "type": "Feature", "properties": { "id": "5b5d62a4e490", "name": "Engel-Apotheke", "adr": "Alter Rathausplatz 12", "zip": 58636, "city": "Iserlohn", "tel": "02371\/22139", "lat": 51.3744897, "lng": 7.6973826, "web": "http:\/\/www.apoengel-app.de" }, "geometry": { "type": "Point", "coordinates": [ 7.6973826, 51.3744897 ] } },
{ "type": "Feature", "properties": { "id": "6155c7350605", "name": "Amtsgarten Apotheke", "adr": "Amtsgarten 20", "zip": 18233, "city": "Neubukow", "tel": "038294\/14980", "lat": 54.03389, "lng": 11.6747, "web": null }, "geometry": { "type": "Point", "coordinates": [ 11.6747, 54.03389 ] } },
{ "type": "Feature", "properties": { "id": "5b8cd500cd67", "name": "Engel-Apotheke", "adr": "Heinrich-Fuchs-Str. 9", "zip": 69126, "city": "Heidelberg", "tel": "06221\/314085", "lat": 49.3799553, "lng": 8.6863352, "web": "https:\/\/www.engel-apotheke-heidelberg-app.de" }, "geometry": { "type": "Point", "coordinates": [ 8.6863352, 49.3799553 ] } },
{ "type": "Feature", "properties": { "id": "fd6cc498ab09", "name": "Stadt-Apotheke", "adr": "Hauptstr. 111", "zip": 99752, "city": "Bleicherode", "tel": "036338\/42353", "lat": 51.4388197, "lng": 10.5689469, "web": "http:\/\/www.stadt-apotheke-bleicherode.de" }, "geometry": { "type": "Point", "coordinates": [ 10.5689469, 51.4388197 ] } },
{ "type": "Feature", "properties": { "id": "489756cd54ec", "name": "Anna Apotheke", "adr": "Wirtelstr. 2", "zip": 52349, "city": "Düren", "tel": "02421\/13008", "lat": 50.8031683, "lng": 6.4849953, "web": "https:\/\/www.anna-apotheke-dueren-app.de" }, "geometry": { "type": "Point", "coordinates": [ 6.4849953, 50.8031683 ] } },
{ "type": "Feature", "properties": { "id": "9d7c310bf7cd", "name": "Straussen-Apotheke", "adr": "Heggerstr. 17", "zip": 45525, "city": "Hattingen", "tel": "02324\/25200", "lat": 51.399503, "lng": 7.184469, "web": null }, "geometry": { "type": "Point", "coordinates": [ 7.184469, 51.399503 ] } },
{ "type": "Feature", "properties": { "id": "40711fc42128", "name": "Anker-Apotheke", "adr": "Gökerstr. 62", "zip": 26384, "city": "Wilhelmshaven", "tel": "04421\/93180", "lat": 53.5277891, "lng": 8.1253816, "web": null }, "geometry": { "type": "Point", "coordinates": [ 8.1253816, 53.5277891 ] } },
{ "type": "Feature", "properties": { "id": "cedf353f1f8c", "name": "Anker-Apotheke", "adr": "Rhauderwieke 2", "zip": 26817, "city": "Rhauderfehn", "tel": "04952\/93770", "lat": 53.136796, "lng": 7.5742402, "web": null }, "geometry": { "type": "Point", "coordinates": [ 7.5742402, 53.136796 ] } },
{ "type": "Feature", "properties": { "id": "7d6c95424420", "name": "Anker-Apotheke", "adr": "Österreicher Str. 25", "zip": 1279, "city": "Dresden", "tel": "0351\/2571186", "lat": 51.0267705, "lng": 13.8362926, "web": "https:\/\/www.anker-apotheke-dresden-app.de" }, "geometry": { "type": "Point", "coordinates": [ 13.8362926, 51.0267705 ] } },
{ "type": "Feature", "properties": { "id": "140c4332c5fe", "name": "Anna-Apotheke", "adr": "Bahnhofstr. 18c", "zip": 85375, "city": "Neufahrn", "tel": "08165\/3699", "lat": 48.31492, "lng": 11.66346, "web": "http:\/\/www.anna-apotheke-neufahrn.de" }, "geometry": { "type": "Point", "coordinates": [ 11.66346, 48.31492 ] } },
{ "type": "Feature", "properties": { "id": "b456c7670d07", "name": "Enten-Apotheke", "adr": "Karmelitergasse 2", "zip": 41844, "city": "Wegberg", "tel": "02434\/2121", "lat": 51.14048, "lng": 6.27778, "web": null }, "geometry": { "type": "Point", "coordinates": [ 6.27778, 51.14048 ] } },
{ "type": "Feature", "properties": { "id": "73a29faf5d8a", "name": "Annen-Apotheke", "adr": "An der Lutherkirche 19", "zip": 30167, "city": "Hannover", "tel": "0511\/701878", "lat": 52.3870745, "lng": 9.7231382, "web": null }, "geometry": { "type": "Point", "coordinates": [ 9.7231382, 52.3870745 ] } },
{ "type": "Feature", "properties": { "id": "e006fb40b550", "name": "Annen-Apotheke", "adr": "Ostpreußenplatz 2", "zip": 24161, "city": "Altenholz", "tel": "0431\/322118", "lat": 54.3863506, "lng": 10.1329574, "web": null }, "geometry": { "type": "Point", "coordinates": [ 10.1329574, 54.3863506 ] } },
{ "type": "Feature", "properties": { "id": "a311ba25c275", "name": "Annen-Apotheke", "adr": "August-Bebel-Str. 1", "zip": 99817, "city": "Eisenach", "tel": "03691\/71324", "lat": 50.9766043, "lng": 10.3124305, "web": null }, "geometry": { "type": "Point", "coordinates": [ 10.3124305, 50.9766043 ] } },
{ "type": "Feature", "properties": { "id": "c06797bef0f3", "name": "Amalien-Apotheke", "adr": "Celler Str. 30", "zip": 38114, "city": "Braunschweig", "tel": "0531\/2503550", "lat": 52.2724588, "lng": 10.5060165, "web": null }, "geometry": { "type": "Point", "coordinates": [ 10.5060165, 52.2724588 ] } },
{ "type": "Feature", "properties": { "id": "273eefa029c7", "name": "Amann'sche-Apotheke", "adr": "Obere Nabburger Str. 17", "zip": 92224, "city": "Amberg", "tel": "09621\/47670", "lat": 49.445462, "lng": 11.8617677, "web": "http:\/\/www.amannsche-apotheke-app.de" }, "geometry": { "type": "Point", "coordinates": [ 11.8617677, 49.445462 ] } },
{ "type": "Feature", "properties": { "id": "d5e9b48f8f35", "name": "Ammerland-Apotheke", "adr": "Lange Str. 25", "zip": 26655, "city": "Westerstede", "tel": "04488\/84400", "lat": 53.2575672, "lng": 7.9234098, "web": "http:\/\/www.ammerlandapotheke.de" }, "geometry": { "type": "Point", "coordinates": [ 7.9234098, 53.2575672 ] } },
{ "type": "Feature", "properties": { "id": "918d6499f396", "name": "Eichen-Apotheke Dahme", "adr": "Seestr. 19 A", "zip": 23747, "city": "Dahme", "tel": "04364\/9484", "lat": 54.2227807, "lng": 11.0834466, "web": null }, "geometry": { "type": "Point", "coordinates": [ 11.0834466, 54.222780699999987 ] } },
{ "type": "Feature", "properties": { "id": "571294d4b723", "name": "Eider-Apotheke", "adr": "Rosenberg 22", "zip": 24220, "city": "Flintbek", "tel": "04347\/9339", "lat": 54.2374062, "lng": 10.0662355, "web": null }, "geometry": { "type": "Point", "coordinates": [ 10.0662355, 54.2374062 ] } },
{ "type": "Feature", "properties": { "id": "c6296885e770", "name": "Sophien-Apotheke", "adr": "Venloer Str. 528", "zip": 50825, "city": "Köln", "tel": "0221\/553248", "lat": 50.9559966, "lng": 6.905726, "web": null }, "geometry": { "type": "Point", "coordinates": [ 6.905726, 50.9559966 ] } },
{ "type": "Feature", "properties": { "id": "276730c2df4c", "name": "Eichhorn-Apotheke", "adr": "Windmühlenstr. 6", "zip": 31311, "city": "Uetze", "tel": "05147\/1061", "lat": 52.4833252, "lng": 10.0924983, "web": "http:\/\/www.eichhorn-apotheke-uetze-app.de" }, "geometry": { "type": "Point", "coordinates": [ 10.0924983, 52.4833252 ] } },
{ "type": "Feature", "properties": { "id": "c2167a4673d8", "name": "Einhorn-Apotheke", "adr": "Am Sande 54", "zip": 21335, "city": "Lüneburg", "tel": "04131\/76380", "lat": 53.2476, "lng": 10.40918, "web": null }, "geometry": { "type": "Point", "coordinates": [ 10.40918, 53.2476 ] } },
{ "type": "Feature", "properties": { "id": "b43c34c23407", "name": "Amts Apotheke", "adr": "Hauptstr. 60A", "zip": 56477, "city": "Rennerod", "tel": "02664\/411", "lat": 50.6078396, "lng": 8.0664419, "web": "http:\/\/www.amts-apotheke-rennerod-app.de" }, "geometry": { "type": "Point", "coordinates": [ 8.0664419, 50.6078396 ] } },
{ "type": "Feature", "properties": { "id": "b5979fbab5df", "name": "Apotheke am Dorfplatz", "adr": "Dorfstr. 156", "zip": 24222, "city": "Schwentinental", "tel": "0431\/799750", "lat": 54.3089669, "lng": 10.2136184, "web": "http:\/\/www.apotheke-am-dorfplatz-app.de" }, "geometry": { "type": "Point", "coordinates": [ 10.2136184, 54.308966899999987 ] } },
{ "type": "Feature", "properties": { "id": "947ee7d18005", "name": "Spitzweg-Apotheke", "adr": "Vegesacker Str. 13", "zip": 28217, "city": "Bremen", "tel": "0421\/3808311", "lat": 53.0961449, "lng": 8.7861887, "web": null }, "geometry": { "type": "Point", "coordinates": [ 8.7861887, 53.0961449 ] } },
{ "type": "Feature", "properties": { "id": "21ef81625c90", "name": "Apotheke am Flughafen", "adr": "Manfred-von-Richthofen-Str. 2", "zip": 12101, "city": "Berlin", "tel": "030\/7862882", "lat": 52.4846875, "lng": 13.3846121, "web": "http:\/\/www.apo-am-flughafen.de" }, "geometry": { "type": "Point", "coordinates": [ 13.3846121, 52.4846875 ] } },
{ "type": "Feature", "properties": { "id": "a76adf6b7467", "name": "Amts-Apotheke", "adr": "Frankfurter Str. 30a", "zip": 56414, "city": "Wallmerod", "tel": "06435\/9648-40", "lat": 50.4829431, "lng": 7.9553248, "web": null }, "geometry": { "type": "Point", "coordinates": [ 7.9553248, 50.4829431 ] } },
{ "type": "Feature", "properties": { "id": "6656f7e5b1f1", "name": "Spitzweg-Apotheke", "adr": "Bahnstr. 102", "zip": 63225, "city": "Langen", "tel": "06103\/25224", "lat": 49.9911974, "lng": 8.660859, "web": "http:\/\/www.apo-spitzweg-app.de" }, "geometry": { "type": "Point", "coordinates": [ 8.660859, 49.9911974 ] } },
{ "type": "Feature", "properties": { "id": "cd684ceb87d6", "name": "Apotheke am Hohen Tor", "adr": "Carl-von-Ossietzky-Platz 5", "zip": 6449, "city": "Aschersleben", "tel": "03473\/911755", "lat": 51.7572515, "lng": 11.4524862, "web": null }, "geometry": { "type": "Point", "coordinates": [ 11.4524862, 51.7572515 ] } },
{ "type": "Feature", "properties": { "id": "60a9de59cc4b", "name": "Apotheke am Goetheplatz", "adr": "Goetheplatz 1", "zip": 88214, "city": "Ravensburg", "tel": "0751\/23860", "lat": 47.7745822, "lng": 9.6084274, "web": "http:\/\/www.apotheke-am-goetheplatz.de" }, "geometry": { "type": "Point", "coordinates": [ 9.6084274, 47.7745822 ] } },
{ "type": "Feature", "properties": { "id": "84b59ba167cd", "name": "Stadt-Apotheke", "adr": "Hauptstr. 36", "zip": 91074, "city": "Herzogenaurach", "tel": "09132\/8000", "lat": 49.5696833, "lng": 10.8800021, "web": "http:\/\/www.stadt-apo-herzo-app.de" }, "geometry": { "type": "Point", "coordinates": [ 10.8800021, 49.5696833 ] } },
{ "type": "Feature", "properties": { "id": "b837a9464d6d", "name": "Elbmarschen-Apotheke", "adr": "Horster Viereck 1", "zip": 25358, "city": "Horst", "tel": "04126\/393101", "lat": 53.8047749, "lng": 9.6235663, "web": null }, "geometry": { "type": "Point", "coordinates": [ 9.6235663, 53.804774900000012 ] } },
{ "type": "Feature", "properties": { "id": "8c96154c4b29", "name": "Apotheke am Klemensplatz", "adr": "Klemensplatz 11", "zip": 40489, "city": "Düsseldorf", "tel": "0211\/401554", "lat": 51.30159, "lng": 6.73998, "web": "http:\/\/www.apotheke-am-klemensplatz-app.de" }, "geometry": { "type": "Point", "coordinates": [ 6.73998, 51.30159 ] } },
{ "type": "Feature", "properties": { "id": "6b8d609ff093", "name": "Elefanten-Apotheke", "adr": "Linkgasse 12", "zip": 42651, "city": "Solingen", "tel": "0212\/17911", "lat": 51.1708949, "lng": 7.0852325, "web": null }, "geometry": { "type": "Point", "coordinates": [ 7.0852325, 51.1708949 ] } },
{ "type": "Feature", "properties": { "id": "a9d83b6f8eee", "name": "Elefanten Apotheke am Klinikum", "adr": "Ratzeburger Allee 111-125", "zip": 23562, "city": "Lübeck", "tel": "0451\/5022239", "lat": 53.84131, "lng": 10.70895, "web": null }, "geometry": { "type": "Point", "coordinates": [ 10.70895, 53.84131 ] } },